,학교ID,학교명,학교급구분,설립일자,설립형태,본교분교구분,운영상태,소재지지번주소,소재지도로명주소,시도교육청코드,시도교육청명,교육지원청코드,교육지원청명,생성일자,변경일자,위도,경도,데이터기준일자,소재지주소
0,B000003905,안산양지초등학교,초등학교,2001-03-01,공립,본교,운영,경기도 안산시 단원구 고잔동  781-1,경기도 안산시 단원구 안산천남로  129(고잔동),7530000,경기도교육청,7611000,경기도안산교육지원청,2013-11-29,,37.304744,126.8347977,2017-09-05,경기도 안산시 단원구
1,B000003906,시곡초등학교,초등학교,1994-06-01,공립,본교,운영,경기도 안산시 상록구 사2동  1344-2,경기도 안산시 상록구 감골1로  46(사동),7530000,경기도교육청,7611000,경기도안산교육지원청,2013-11-29,,37.2888533,126.85245230000001,2017-09-05,경기도 안산시 상록구
2,B000003907,본오초등학교,초등학교,1939-03-20,공립,본교,운영,경기도 안산시 상록구 본오동  821,경기도 안산시 상록구 각골서로  49(본오동),7530000,경기도교육청,7611000,경기도안산교육지원청,2013-11-29,,37.294533200000004,126.8686756,2017-09-05,경기도 안산시 상록구
3,B000003908,본원초등학교,초등학교,1995-06-01,공립,본교,운영,경기도 안산시 상록구 본오동  902,경기도 안산시 상록구 샘골로  83(본오동),7530000,경기도교육청,7611000,경기도안산교육지원청,2013-11-29,,37.2911685,126.8619834,2017-09-05,경기도 안산시 상록구
4,B000003909,각골초등학교,초등학교,2002-03-01,공립,본교,운영,경기도 안산시 상록구 본오동  728-6,경기도 안산시 상록구 석호로  384(본오동),7530000,경기도교육청,7611000,경기도안산교육지원청,2013-11-29,,37.292617,126.87334879999999,2017-09-05,경기도 안산시 상록구
5,B000003910,팔곡초등학교,초등학교,2007-03-01,공립,본교,운영,경기도 안산시 상록구 팔곡이동  385,경기도 안산시 상록구 팔곡두레길  71(팔곡이동),7530000,경기도교육청,7611000,경기도안산교육지원청,2013-11-29,,37.297364,126.88284540000001,2017-09-05,경기도 안산시 상록구
6,B000003911,반월초등학교,초등학교,1923-05-30,공립,본교,운영,경기도 안산시 상록구 건건동  629,,7530000,경기도교육청,7611000,경기도안산교육지원청,2013-11-29,,37.3053721,126.9013972,2017-09-05,경기도 안산시 상록구
7,B000003912,안산창촌초등학교,초등학교,2007-03-01,공립,본교,운영,경기도 안산시 상록구 건건동  619,경기도 안산시 상록구 건건5길  7(건건동),7530000,경기도교육청,7611000,경기도안산교육지원청,2013-11-29,,37.307692200000005,126.9045574,2017-09-05,경기도 안산시 상록구
8,B000003913,안산초등학교,초등학교,1899-09-15,공립,본교,운영,경기도 안산시 상록구 수암동  177,경기도 안산시 상록구 수암2길  13-7(수암동),7530000,경기도교육청,7611000,경기도안산교육지원청,2013-11-29,,37.364752200000005,126.8780946,2017-09-05,경기도 안산시 상록구
9,B000003914,상록초등학교,초등학교,1993-03-01,공립,본교,운영,경기도 안산시 상록구 본오3동  872-1,경기도 안산시 상록구 본오로  157(본오동),7530000,경기도교육청,7611000,경기도안산교육지원청,2013-11-29,,37.2988338,126.8659152,2017-09-05,경기도 안산시 상록구
10,B000003915,이호초등학교,초등학교,1997-05-06,공립,본교,운영,경기도 안산시 상록구 본오1동  958,경기도 안산시 상록구 고목로3길  44(본오동),7530000,경기도교육청,7611000,경기도안산교육지원청,2013-11-29,,37.2867093,126.86059650000001,2017-09-05,경기도 안산시 상록구
11,B000003916,정재초등학교,초등학교,1971-03-01,공립,본교,운영,경기도 안산시 상록구 부곡동  225-5,경기도 안산시 상록구 정재초교길  11(부곡동),7530000,경기도교육청,7611000,경기도안산교육지원청,2013-11-29,,37.3381245,126.86441,2017-09-05,경기도 안산시 상록구
12,B000003917,안산부곡초등학교,초등학교,1997-03-01,공립,본교,운영,경기도 안산시 상록구 부곡동  680,경기도 안산시 상록구 부곡로  73(부곡동),7530000,경기도교육청,7611000,경기도안산교육지원청,2013-11-29,,37.3290221,126.86012420000002,2017-09-05,경기도 안산시 상록구
13,B000003918,시랑초등학교,초등학교,2002-03-01,공립,본교,운영,경기도 안산시 상록구 부곡동  719-3,경기도 안산시 상록구 충장로  670(부곡동),7530000,경기도교육청,7611000,경기도안산교육지원청,2013-11-29,,37.33619829999999,126.8558662,2017-09-05,경기도 안산시 상록구
14,B000003919,석호초등학교,초등학교,1966-05-02,공립,본교,운영,경기도 안산시 상록구 사동  1193,경기도 안산시 상록구 석호로  113(사동),7530000,경기도교육청,7611000,경기도안산교육지원청,2013-11-29,,37.3008045,126.8482209,2017-09-05,경기도 안산시 상록구
15,B000003920,초당초등학교,초등학교,1996-03-21,공립,본교,운영,경기도 안산시 상록구 사동  1389,경기도 안산시 상록구 초당로  25(사동),7530000,경기도교육청,7611000,경기도안산교육지원청,2013-11-29,,37.28535720000001,126.85110970000001,2017-09-05,경기도 안산시 상록구
16,B000003921,경일초등학교,초등학교,1987-09-01,공립,본교,운영,경기도 안산시 상록구 성포동  591-1,경기도 안산시 상록구 성포로  47(성포동),7530000,경기도교육청,7611000,경기도안산교육지원청,2013-11-29,,37.323921999999996,126.84768190000001,2017-09-05,경기도 안산시 상록구
17,B000003922,성포초등학교,초등학교,1990-03-01,공립,본교,운영,경기도 안산시 상록구 성포동  592-1,경기도 안산시 상록구 안산천동로  90(성포동),7530000,경기도교육청,7611000,경기도안산교육지원청,2013-11-29,,37.3240429,126.8425364,2017-09-05,경기도 안산시 상록구
18,B000003923,경수초등학교,초등학교,2000-05-04,공립,본교,운영,경기도 안산시 상록구 성포동  594-3,경기도 안산시 상록구 삼일로  670(성포동),7530000,경기도교육청,7611000,경기도안산교육지원청,2013-11-29,,37.326992700000005,126.8506091,2017-09-05,경기도 안산시 상록구
19,B000003924,삼일초등학교,초등학교,1990-02-06,공립,본교,운영,경기도 안산시 상록구 월피동  448-1,경기도 안산시 상록구 월피로  42(월피동),7530000,경기도교육청,7611000,경기도안산교육지원청,2013-11-29,,37.3323379,126.85064309999998,2017-09-05,경기도 안산시 상록구
20,B000003925,안산광덕초등학교,초등학교,1996-03-01,공립,본교,운영,경기도 안산시 상록구 월피동  523,경기도 안산시 상록구 안산천서로3길  6-7(월피동),7530000,경기도교육청,7611000,경기도안산교육지원청,2013-11-29,,37.332886200000004,126.8438782,2017-09-05,경기도 안산시 상록구
21,B000003926,학현초등학교,초등학교,2003-03-03,공립,본교,운영,경기도 안산시 상록구 이동  665-1,경기도 안산시 상록구 석호로  6(이동),7530000,경기도교육청,7611000,경기도안산교육지원청,2013-11-29,,37.3108044,126.8470585,2017-09-05,경기도 안산시 상록구
22,B000003431,대전가장초등학교,초등학교,1983-12-13,공립,본교,운영,대전광역시 서구 가장동  25-1,대전광역시 서구 가장로  150(가장동),7430000,대전광역시교육청,7451000,대전광역시서부교육지원청,2013-11-29,,36.3305372,127.3878807,2017-09-05,대전광역시 서구 가장동
23,B000004339,신곡초등학교,초등학교,2008-03-01,공립,본교,운영,경기도 김포시 고촌읍 신곡리  1267,경기도 김포시 고촌읍 수기로  67-30,7530000,경기도교육청,7771000,경기도김포교육지원청,2013-11-29,,37.596542299999996,126.76608909999999,2017-09-05,경기도 김포시 고촌읍
24,B000004363,증포초등학교,초등학교,2007-03-01,공립,본교,운영,경기도 이천시 증포동 477,경기도 이천시 이섭대천로 1418(증포동),7530000,경기도교육청,7741000,경기도이천교육지원청,2013-11-29,2017-02-28,37.2942755,127.4569669,2017-09-05,경기도 이천시 증포동
25,B000004340,마송중앙초등학교,초등학교,2010-03-01,공립,본교,운영,경기도 김포시 통진읍 마송리  499,경기도 김포시 통진읍 마송1로  140,7530000,경기도교육청,7771000,경기도김포교육지원청,2013-11-29,,37.6894042,126.59397450000002,2017-09-05,경기도 김포시 통진읍
26,B000004341,마송초등학교,초등학교,1955-05-10,공립,본교,운영,경기도 김포시 통진읍 마송리  1-2,경기도 김포시 통진읍 흥신로  315,7530000,경기도교육청,7771000,경기도김포교육지원청,2013-11-29,,37.6844267,126.60655049999998,2017-09-05,경기도 김포시 통진읍
27,B000004342,서암초등학교,초등학교,1949-04-01,공립,본교,운영,경기도 김포시 통진읍 서암리  412,,7530000,경기도교육청,7771000,경기도김포교육지원청,2013-11-29,,37.6998586,126.60484450000001,2017-09-05,경기도 김포시 통진읍
28,B000004343,통진초등학교,초등학교,2006-03-01,공립,본교,운영,경기도 김포시 통진읍 서암리  1108,경기도 김포시 통진읍 조강로  116,7530000,경기도교육청,7771000,경기도김포교육지원청,2013-11-29,,37.6937255,126.5944372,2017-09-05,경기도 김포시 통진읍
29,B000004344,금란초등학교,초등학교,1957-04-27,공립,본교,운영,경기도 김포시 고촌읍 풍곡리  466-2,경기도 김포시 고촌읍 장곡로  42,7530000,경기도교육청,7771000,경기도김포교육지원청,2013-11-29,,37.607567200000005,126.7511726,2017-09-05,경기도 김포시 고촌읍
30,B000004345,학운초등학교,초등학교,1958-02-05,공립,본교,운영,경기도 김포시 양촌읍 학운리  2825,경기도 김포시 양촌읍 황금로70번길  13,7530000,경기도교육청,7771000,경기도김포교육지원청,2013-11-29,,37.6209923,126.62463490000002,2017-09-05,경기도 김포시 양촌읍
31,B000004346,양곡초등학교,초등학교,1919-12-15,공립,본교,운영,경기도 김포시 양촌읍 양곡리  432-10,경기도 김포시 양촌읍 양곡로  548,7530000,경기도교육청,7771000,경기도김포교육지원청,2013-11-29,,37.655420299999996,126.6223801,2017-09-05,경기도 김포시 양촌읍
32,B000004347,신양초등학교,초등학교,2010-03-01,공립,본교,운영,경기도 김포시 양촌읍 양곡리  1257,경기도 김포시 양촌읍 양곡3로  47,7530000,경기도교육청,7771000,경기도김포교육지원청,2013-11-29,,37.6558897,126.6340895,2017-09-05,경기도 김포시 양촌읍
33,B000004348,수남초등학교,초등학교,1936-04-01,공립,본교,운영,경기도 김포시 대곶면 대벽리  47,,7530000,경기도교육청,7771000,경기도김포교육지원청,2013-11-29,,37.6286405,126.58863909999998,2017-09-05,경기도 김포시 대곶면
34,B000004349,김포대명초등학교,초등학교,1966-03-08,공립,본교,운영,경기도 김포시 대곶면 대명리  366-1,,7530000,경기도교육청,7771000,경기도김포교육지원청,2013-11-29,,37.6482705,126.55342350000001,2017-09-05,경기도 김포시 대곶면
35,B000004350,대곶초등학교,초등학교,1929-11-28,공립,본교,운영,경기도 김포시 대곶면 율생리  444,경기도 김포시 대곶면 율생중앙로36번길  19,7530000,경기도교육청,7771000,경기도김포교육지원청,2013-11-29,,37.6520092,126.58460500000001,2017-09-05,경기도 김포시 대곶면
36,B000004351,석정초등학교,초등학교,1949-09-09,공립,본교,운영,경기도 김포시 대곶면 석정리  381,경기도 김포시 대곶면 대곶로331번길  10,7530000,경기도교육청,7771000,경기도김포교육지원청,2013-11-29,,37.6735637,126.5543499,2017-09-05,경기도 김포시 대곶면
37,B000004352,옹정초등학교,초등학교,1971-03-01,공립,본교,운영,경기도 김포시 통진읍 옹정리  167-45,경기도 김포시 통진읍 옹정로185번길  26,7530000,경기도교육청,7771000,경기도김포교육지원청,2013-11-29,,37.693943700000005,126.56392120000001,2017-09-05,경기도 김포시 통진읍
38,B000004353,개곡초등학교,초등학교,1966-03-02,공립,본교,운영,경기도 김포시 월곶면 개곡리  267-2,경기도 김포시 월곶면 애기봉로  445,7530000,경기도교육청,7771000,경기도김포교육지원청,2013-11-29,,37.7321415,126.5934648,2017-09-05,경기도 김포시 월곶면
39,B000004354,월곶초등학교,초등학교,1908-04-10,공립,본교,운영,경기도 김포시 월곶면 군하리  218,,7530000,경기도교육청,7771000,경기도김포교육지원청,2013-11-29,,37.717164700000005,126.55159840000002,2017-09-05,경기도 김포시 월곶면
40,B000004355,하성초등학교,초등학교,1927-06-01,공립,본교,운영,경기도 김포시 하성면 마곡리  617-1,경기도 김포시 하성면 애기봉로  857,7530000,경기도교육청,7771000,경기도김포교육지원청,2013-11-29,,37.7201072,126.63284420000001,2017-09-05,경기도 김포시 하성면
41,B000004356,금성초등학교,초등학교,1955-11-25,공립,본교,운영,경기도 김포시 하성면 마조리  434,,7530000,경기도교육청,7771000,경기도김포교육지원청,2013-11-29,,37.7444048,126.63267009999998,2017-09-05,경기도 김포시 하성면
42,B000004357,설봉초등학교,초등학교,1990-10-02,공립,본교,운영,경기도 이천시 창전동 501,경기도 이천시 향교로 129(창전동),7530000,경기도교육청,7741000,경기도이천교육지원청,2013-11-29,2017-02-21,37.2845242,127.45277390000001,2017-09-05,경기도 이천시 창전동
43,B000004358,이천송정초등학교,초등학교,2002-03-01,공립,본교,운영,경기도 이천시 송정동 375-23,경기도 이천시 영창로45번길 165(송정동),7530000,경기도교육청,7741000,경기도이천교육지원청,2013-11-29,2017-02-28,37.294211,127.43322509999999,2017-09-05,경기도 이천시 송정동
44,B000004359,안흥초등학교,초등학교,2002-05-01,공립,본교,운영,경기도 이천시 안흥동 344-1,경기도 이천시 영창로300번길 16(안흥동),7530000,경기도교육청,7741000,경기도이천교육지원청,2013-11-29,2017-02-28,37.2802439,127.45669529999999,2017-09-05,경기도 이천시 안흥동
45,B000004360,한내초등학교,초등학교,1998-10-10,공립,본교,운영,경기도 이천시 증포동 70-5,경기도 이천시 갈산로 71(증포동),7530000,경기도교육청,7741000,경기도이천교육지원청,2013-11-29,2017-02-28,37.2900422,127.46165420000001,2017-09-05,경기도 이천시 증포동
46,B000004361,이천단월초등학교,초등학교,1954-04-13,공립,본교,운영,경기도 이천시 단월동 182-3,경기도 이천시 단월로 98(단월동),7530000,경기도교육청,7741000,경기도이천교육지원청,2013-11-29,2017-02-28,37.2273955,127.4512476,2017-09-05,경기도 이천시 단월동
47,B000004362,이천남초등학교,초등학교,1955-05-10,공립,본교,운영,경기도 이천시 중리동 455,경기도 이천시 경충대로2614번길 32(중리동),7530000,경기도교육청,7741000,경기도이천교육지원청,2013-11-29,2017-02-28,37.276527200000004,127.444115,2017-09-05,경기도 이천시 중리동
48,B000004584,창현초등학교,초등학교,1998-03-01,공립,본교,운영,경기도 남양주시 화도읍 창현리  766,경기도 남양주시 화도읍 녹촌로  12,7530000,경기도교육청,7652000,경기도구리남양주교육지원청,2013-11-29,,37.6455702,127.3021146,2017-09-05,경기도 남양주시 화도읍
49,B000004585,진접초등학교,초등학교,2009-09-01,공립,본교,운영,경기도 남양주시 진접읍 금곡리  1109,경기도 남양주시 진접읍 해밀예당2로  102,7530000,경기도교육청,7652000,경기도구리남양주교육지원청,2013-11-29,,37.717068,127.1998041,2017-09-05,경기도 남양주시 진접읍
50,B000004586,주곡초등학교,초등학교,2010-03-05,공립,본교,운영,경기도 남양주시 진접읍 금곡리  1004,경기도 남양주시 진접읍 해밀예당1로  277,7530000,경기도교육청,7652000,경기도구리남양주교육지원청,2013-11-29,,37.72468679999999,127.2059047,2017-09-05,경기도 남양주시 진접읍
51,B000004587,화봉초등학교,초등학교,2010-03-01,공립,본교,운영,경기도 남양주시 진접읍 금곡리  1078,경기도 남양주시 진접읍 해밀예당2로  21,7530000,경기도교육청,7652000,경기도구리남양주교육지원청,2013-11-29,,37.71584179999999,127.19175279999999,2017-09-05,경기도 남양주시 진접읍
52,B000004588,풍양초등학교,초등학교,1958-04-01,공립,본교,운영,경기도 남양주시 진접읍 내각리  670-2,경기도 남양주시 진접읍 내각1로  31-1,7530000,경기도교육청,7652000,경기도구리남양주교육지원청,2013-11-29,,37.701918299999996,127.16165910000001,2017-09-05,경기도 남양주시 진접읍
53,B000004589,부평초등학교,초등학교,2010-03-01,공립,본교,운영,경기도 남양주시 진접읍 부평리  761,경기도 남양주시 진접읍 부평로48번길  27,7530000,경기도교육청,7652000,경기도구리남양주교육지원청,2013-11-29,,37.7379566,127.20153119999999,2017-09-05,경기도 남양주시 진접읍
54,B000004590,장승초등학교,초등학교,2001-09-01,공립,본교,운영,경기도 남양주시 진접읍 장현리  49-10,경기도 남양주시 진접읍 금강로1576번길  12,7530000,경기도교육청,7652000,경기도구리남양주교육지원청,2013-11-29,,37.730086,127.19554620000001,2017-09-05,경기도 남양주시 진접읍
55,B000004591,장현초등학교,초등학교,1922-05-24,공립,본교,운영,경기도 남양주시 진접읍 장현리  379,경기도 남양주시 진접읍 장현천로  37,7530000,경기도교육청,7652000,경기도구리남양주교육지원청,2013-11-29,,37.719172799999996,127.18218859999999,2017-09-05,경기도 남양주시 진접읍
56,B000004592,광릉초등학교,초등학교,1944-03-07,공립,본교,운영,경기도 남양주시 진접읍 팔야리  762,경기도 남양주시 진접읍 광릉내로82번길  29,7530000,경기도교육청,7652000,경기도구리남양주교육지원청,2013-11-29,,37.7456089,127.20727009999999,2017-09-05,경기도 남양주시 진접읍
57,B000004593,어람초등학교,초등학교,2006-03-01,공립,본교,운영,경기도 남양주시 오남읍 오남리  358-5,경기도 남양주시 오남읍 진건오남로550번길  25,7530000,경기도교육청,7652000,경기도구리남양주교육지원청,2013-11-29,,37.6823929,127.2127379,2017-09-05,경기도 남양주시 오남읍
58,B000004594,남양주양지초등학교,초등학교,1998-09-01,공립,본교,운영,경기도 남양주시 오남읍 양지리  70,,7530000,경기도교육청,7652000,경기도구리남양주교육지원청,2013-11-29,,37.6993196,127.2067872,2017-09-05,경기도 남양주시 오남읍
59,B000004595,양오초등학교,초등학교,2006-03-01,공립,본교,운영,경기도 남양주시 오남읍 양지리  616-5,,7530000,경기도교육청,7652000,경기도구리남양주교육지원청,2013-11-29,,37.6974473,127.1924284,2017-09-05,경기도 남양주시 오남읍
60,B000004596,오남초등학교,초등학교,1945-09-01,공립,본교,운영,경기도 남양주시 오남읍 오남리  134-1,,7530000,경기도교육청,7652000,경기도구리남양주교육지원청,2013-11-29,,37.695361299999995,127.2144607,2017-09-05,경기도 남양주시 오남읍
61,B000004597,예봉초등학교,초등학교,2007-09-01,공립,본교,운영,경기도 남양주시 와부읍 덕소리  252,경기도 남양주시 와부읍 수레로  108,7530000,경기도교육청,7652000,경기도구리남양주교육지원청,2013-11-29,,37.59231810000001,127.2213182,2017-09-05,경기도 남양주시 와부읍
62,B000004598,와부초등학교,초등학교,2002-03-01,공립,본교,운영,경기도 남양주시 와부읍 덕소리  75-5,경기도 남양주시 와부읍 월문천로  63,7530000,경기도교육청,7652000,경기도구리남양주교육지원청,2013-11-29,,37.5863257,127.2185385,2017-09-05,경기도 남양주시 와부읍
63,B000004599,덕소초등학교,초등학교,1924-10-24,공립,본교,운영,경기도 남양주시 와부읍 덕소리  431-1,,7530000,경기도교육청,7652000,경기도구리남양주교육지원청,2013-11-29,,37.5880755,127.21471570000001,2017-09-05,경기도 남양주시 와부읍
64,B000004600,남양주월문초등학교,초등학교,1975-03-01,공립,본교,운영,경기도 남양주시 와부읍 월문리  269-1,경기도 남양주시 와부읍 수레로  519,7530000,경기도교육청,7652000,경기도구리남양주교육지원청,2013-11-29,,37.6091305,127.26187250000001,2017-09-05,경기도 남양주시 와부읍
65,B000004601,도심초등학교,초등학교,2004-03-01,공립,본교,운영,경기도 남양주시 와부읍 도곡리  1051-7,경기도 남양주시 와부읍 석실로  45,7530000,경기도교육청,7652000,경기도구리남양주교육지원청,2013-11-29,,37.580547700000004,127.2277922,2017-09-05,경기도 남양주시 와부읍
66,B000004602,남양주도곡초등학교,초등학교,1999-03-01,공립,본교,운영,경기도 남양주시 와부읍 도곡리  산46-7,,7530000,경기도교육청,7652000,경기도구리남양주교육지원청,2013-11-29,,37.5795829,127.2180881,2017-09-05,경기도 남양주시 와부읍
67,B000004603,심석초등학교,초등학교,1987-06-25,사립,본교,운영,경기도 남양주시 화도읍 마석우리  215-1,경기도 남양주시 화도읍 마석로76번길  10,7530000,경기도교육청,7652000,경기도구리남양주교육지원청,2013-11-29,,37.6575523,127.30705090000001,2017-09-05,경기도 남양주시 화도읍
68,B000004604,마석초등학교녹촌분교장,초등학교,1965-06-01,공립,분교,운영,경기도 남양주시 화도읍 녹촌리  272,경기도 남양주시 화도읍 가구단지6길  63-12,7530000,경기도교육청,7652000,경기도구리남양주교육지원청,2013-11-29,,37.652080700000006,127.2864889,2017-09-05,경기도 남양주시 화도읍
69,B000004605,화접초등학교,초등학교,1950-11-08,공립,본교,운영,경기도 남양주시 별내동  1075,경기도 남양주시 별내중앙로  148(별내동),7530000,경기도교육청,7652000,경기도구리남양주교육지원청,2013-11-29,,37.653054600000004,127.115982,2017-09-05,경기도 남양주시 별내동
70,B000004606,별내초등학교,초등학교,1934-10-01,공립,본교,운영,경기도 남양주시 별내면 청학리  408-2,경기도 남양주시 별내면 청학로92번길  38,7530000,경기도교육청,7652000,경기도구리남양주교육지원청,2013-11-29,,37.711118299999995,127.1184119,2017-09-05,경기도 남양주시 별내면
71,B000004828,근화초등학교,초등학교,1954-08-23,공립,본교,운영,강원도 춘천시 근화동  802-14,강원도 춘천시 소양로163번길  23(근화동),7800000,강원도교육청,7811000,강원도춘천교육지원청,2013-11-29,,37.8891154,127.72299040000001,2017-09-05,강원도 춘천시 근화동
72,B000004829,호반초등학교,초등학교,1991-03-02,공립,본교,운영,강원도 춘천시 후평동  15,강원도 춘천시 후만로126번길  35(후평동),7800000,강원도교육청,7811000,강원도춘천교육지원청,2013-11-29,,37.874553399999996,127.7607372,2017-09-05,강원도 춘천시 후평동
73,B000004830,신남초등학교,초등학교,1934-10-10,공립,본교,운영,강원도 춘천시 칠전동  149,강원도 춘천시 칠전서길  37(칠전동),7800000,강원도교육청,7811000,강원도춘천교육지원청,2013-11-29,,37.8425095,127.71175819999999,2017-09-05,강원도 춘천시 칠전동
74,B000004831,신동초등학교,초등학교,1939-06-06,공립,본교,운영,강원도 춘천시 신동  735-4,,7800000,강원도교육청,7811000,강원도춘천교육지원청,2013-11-29,,37.9301435,127.72285649999999,2017-09-05,강원도 춘천시 신동
75,B000004832,석사초등학교,초등학교,1969-04-10,공립,본교,운영,강원도 춘천시 석사동  339,강원도 춘천시 공지로  126(석사동),7800000,강원도교육청,7811000,강원도춘천교육지원청,2013-11-29,,37.857885499999995,127.7494217,2017-09-05,강원도 춘천시 석사동
76,B000004833,봄내초등학교,초등학교,2000-05-01,공립,본교,운영,강원도 춘천시 석사동  815,강원도 춘천시 퇴계로  220-10(석사동),7800000,강원도교육청,7811000,강원도춘천교육지원청,2013-11-29,,37.855829299999996,127.7419298,2017-09-05,강원도 춘천시 석사동
77,B000004834,성림초등학교,초등학교,2002-09-01,공립,본교,운영,강원도 춘천시 석사동  868,강원도 춘천시 지석로  47(석사동),7800000,강원도교육청,7811000,강원도춘천교육지원청,2013-11-29,,37.8522402,127.7403494,2017-09-05,강원도 춘천시 석사동
78,B000004835,우석초등학교,초등학교,1999-09-01,공립,본교,운영,강원도 춘천시 석사동  754,강원도 춘천시 애막골길16번길  6(석사동),7800000,강원도교육청,7811000,강원도춘천교육지원청,2013-11-29,,37.864524200000005,127.749873,2017-09-05,강원도 춘천시 석사동
79,B000004836,남춘천초등학교,초등학교,1951-10-15,공립,본교,운영,강원도 춘천시 온의동  550,강원도 춘천시 충혼길  33(온의동),7800000,강원도교육청,7811000,강원도춘천교육지원청,2013-11-29,,37.860972600000004,127.7221078,2017-09-05,강원도 춘천시 온의동
80,B000004837,소양초등학교,초등학교,1941-11-01,공립,본교,운영,강원도 춘천시 우두동  282-1,강원도 춘천시 충열로  134(우두동),7800000,강원도교육청,7811000,강원도춘천교육지원청,2013-11-29,,37.9047504,127.7399293,2017-09-05,강원도 춘천시 우두동
81,B000004838,남부초등학교,초등학교,1996-09-01,공립,본교,운영,강원도 춘천시 퇴계동  915,강원도 춘천시 춘주로  159(퇴계동),7800000,강원도교육청,7811000,강원도춘천교육지원청,2013-11-29,,37.8587926,127.7267045,2017-09-05,강원도 춘천시 퇴계동
82,B000004839,동춘천초등학교,초등학교,1972-03-04,공립,본교,운영,강원도 춘천시 효자동  44-3,강원도 춘천시 성심로  77(효자동),7800000,강원도교육청,7811000,강원도춘천교육지원청,2013-11-29,,37.877218400000004,127.7428554,2017-09-05,강원도 춘천시 효자동
83,B000004840,부안초등학교,초등학교,1984-10-30,공립,본교,운영,강원도 춘천시 후평동  474-3,강원도 춘천시 서부대성로239번길  70(후평동),7800000,강원도교육청,7811000,강원도춘천교육지원청,2013-11-29,,37.8766743,127.7498895,2017-09-05,강원도 춘천시 후평동
84,B000004841,후평초등학교,초등학교,1980-10-02,공립,본교,운영,강원도 춘천시 후평동  511-36,강원도 춘천시 춘천로295번길  17(후평동),7800000,강원도교육청,7811000,강원도춘천교육지원청,2013-11-29,,37.8827158,127.7441564,2017-09-05,강원도 춘천시 후평동
85,B000004842,동부초등학교,초등학교,1995-03-02,공립,본교,운영,강원도 춘천시 후평동  894,강원도 춘천시 서부대성로  339(후평동),7800000,강원도교육청,7811000,강원도춘천교육지원청,2013-11-29,,37.8708167,127.7547818,2017-09-05,강원도 춘천시 후평동
86,B000004843,성원초등학교,초등학교,2005-09-01,공립,본교,운영,강원도 춘천시 퇴계동  1035,강원도 춘천시 승지골길16번길  36(퇴계동),7800000,강원도교육청,7811000,강원도춘천교육지원청,2013-11-29,,37.8482999,127.7445837,2017-09-05,강원도 춘천시 퇴계동
87,B000004844,천전초등학교,초등학교,1927-04-01,공립,본교,운영,강원도 춘천시 신북읍 율문리  295,강원도 춘천시 신북읍 율문1길  16-9,7800000,강원도교육청,7811000,강원도춘천교육지원청,2013-11-29,,37.9273882,127.7455084,2017-09-05,강원도 춘천시 신북읍
88,B000004845,오동초등학교,초등학교,1949-04-01,공립,본교,운영,강원도 춘천시 신북읍 발산리  473-2,강원도 춘천시 신북읍 장본길  74,7800000,강원도교육청,7811000,강원도춘천교육지원청,2013-11-29,,37.9514188,127.7581622,2017-09-05,강원도 춘천시 신북읍
89,B000004846,상천초등학교,초등학교,1956-05-28,공립,본교,운영,강원도 춘천시 신북읍 천전리 170,강원도 춘천시 신북읍 상천2길 19,7800000,강원도교육청,7811000,강원도춘천교육지원청,2013-11-29,2017-05-29,37.9335917,127.78542409999999,2017-09-05,강원도 춘천시 신북읍
90,B000004847,금병초등학교,초등학교,1947-02-01,공립,본교,운영,강원도 춘천시 신동면 증리  360-1,강원도 춘천시 신동면 김유정로  1394,7800000,강원도교육청,7811000,강원도춘천교육지원청,2013-11-29,,37.815166,127.71444369999999,2017-09-05,강원도 춘천시 신동면
91,B000004848,금산초등학교,초등학교,1932-03-15,공립,본교,운영,강원도 춘천시 서면 금산리  472-1,강원도 춘천시 서면 금산2길  21,7800000,강원도교육청,7811000,강원도춘천교육지원청,2013-11-29,,37.9032493,127.6995872,2017-09-05,강원도 춘천시 서면
92,B000004849,당림초등학교,초등학교,1935-04-01,공립,본교,운영,강원도 춘천시 서면 당림리  414-1,강원도 춘천시 서면 당숲안길  81,7800000,강원도교육청,7811000,강원도춘천교육지원청,2013-11-29,,37.83763,127.60784299999999,2017-09-05,강원도 춘천시 서면
93,B000004850,서상초등학교,초등학교,1945-06-10,공립,본교,운영,강원도 춘천시 서면 신매리  329-1,강원도 춘천시 서면 박사로  1348,7800000,강원도교육청,7811000,강원도춘천교육지원청,2013-11-29,,37.9289032,127.7072893,2017-09-05,강원도 춘천시 서면
94,B000004851,조양초등학교,초등학교,1943-04-15,공립,본교,운영,강원도 춘천시 동산면 조양리  371-1,강원도 춘천시 동산면 조양길  257,7800000,강원도교육청,7811000,강원도춘천교육지원청,2013-11-29,,37.751200299999994,127.7956209,2017-09-05,강원도 춘천시 동산면
95,B000004463,다문초등학교,초등학교,1938-04-01,공립,본교,운영,경기도 양평군 용문면 다문리 626,경기도 양평군 용문면 다문중앙2길 27,7530000,경기도교육청,7731000,경기도양평교육지원청,2013-11-29,2017-02-06,37.4857915,127.591646,2017-09-05,경기도 양평군 용문면
96,B000003432,대전봉산초등학교,초등학교,1981-11-02,공립,본교,운영,대전광역시 서구 갈마동 389,대전광역시 서구 신갈마로141번길 45(갈마동),7430000,대전광역시교육청,7451000,대전광역시서부교육지원청,2013-11-29,2016-12-12,36.3453547,127.36526740000001,2017-09-05,대전광역시 서구 갈마동
97,B000003433,대전선암초등학교,초등학교,1999-07-01,공립,본교,운영,대전광역시 서구 관저동  1152,대전광역시 서구 관저중로  61(관저동),7430000,대전광역시교육청,7451000,대전광역시서부교육지원청,2013-11-29,,36.2971614,127.3335346,2017-09-05,대전광역시 서구 관저동
98,B000003434,대전구봉초등학교,초등학교,1999-07-01,공립,본교,운영,대전광역시 서구 관저동 1133,대전광역시 서구 관저로 75(관저동),7430000,대전광역시교육청,7451000,대전광역시서부교육지원청,2013-11-29,2016-12-19,36.2995259,127.329404,2017-09-05,대전광역시 서구 관저동
99,B000003435,대전금동초등학교,초등학교,1999-07-01,공립,본교,운영,대전광역시 서구 관저동  1141,대전광역시 서구 관저로  45(관저동),7430000,대전광역시교육청,7451000,대전광역시서부교육지원청,2013-11-29,,36.2980967,127.32557690000002,2017-09-05,대전광역시 서구 관저동
100,B000003436,대전관저초등학교,초등학교,1997-10-02,공립,본교,운영,대전광역시 서구 관저동  992,대전광역시 서구 관저동로  161(관저동),7430000,대전광역시교육청,7451000,대전광역시서부교육지원청,2013-11-29,,36.306217700000005,127.3393344,2017-09-05,대전광역시 서구 관저동
101,B000003437,대전느리울초등학교,초등학교,2004-03-01,공립,본교,운영,대전광역시 서구 관저동 1396,대전광역시 서구 관저로 196(관저동),7430000,대전광역시교육청,7451000,대전광역시서부교육지원청,2013-11-29,2016-12-19,36.298238700000006,127.3434834,2017-09-05,대전광역시 서구 관저동
102,B000003438,대전도마초등학교,초등학교,1985-02-01,공립,본교,운영,대전광역시 서구 도마동  27,대전광역시 서구 배재로172번길  23(도마동),7430000,대전광역시교육청,7451000,대전광역시서부교육지원청,2013-11-29,,36.324416,127.37119299999999,2017-09-05,대전광역시 서구 도마동
103,B000003439,대전유천초등학교,초등학교,1934-09-05,공립,본교,운영,대전광역시 서구 도마동  149-1,대전광역시 서구 제비네6길  69(도마동),7430000,대전광역시교육청,7451000,대전광역시서부교육지원청,2013-11-29,,36.3148101,127.3751801,2017-09-05,대전광역시 서구 도마동
104,B000003440,대전둔산초등학교,초등학교,1995-03-01,공립,본교,운영,대전광역시 서구 둔산동 1205,대전광역시 서구 둔산로74번길 20(둔산동),7430000,대전광역시교육청,7451000,대전광역시서부교육지원청,2013-11-29,2016-12-12,36.3499295,127.38088049999999,2017-09-05,대전광역시 서구 둔산동
105,B000003441,한밭초등학교,초등학교,1993-03-01,공립,본교,운영,대전광역시 서구 둔산동 1386,대전광역시 서구 문정로 221(둔산동),7430000,대전광역시교육청,7451000,대전광역시서부교육지원청,2013-11-29,2016-12-12,36.353947999999995,127.39399099999999,2017-09-05,대전광역시 서구 둔산동
106,B000003442,대전만년초등학교,초등학교,1995-06-08,공립,본교,운영,대전광역시 서구 만년동 280,대전광역시 서구 만년남로 14(만년동),7430000,대전광역시교육청,7451000,대전광역시서부교육지원청,2013-11-29,2016-12-12,36.366586299999994,127.37682450000001,2017-09-05,대전광역시 서구 만년동
107,B000003443,대전둔천초등학교,초등학교,1996-09-01,공립,본교,운영,대전광역시 서구 만년동 8,대전광역시 서구 만년로 3(만년동),7430000,대전광역시교육청,7451000,대전광역시서부교육지원청,2013-11-29,2016-12-12,36.3680343,127.373607,2017-09-05,대전광역시 서구 만년동
108,B000003444,대전서부초등학교,초등학교,1992-04-28,공립,본교,운영,대전광역시 서구 변동 254-439,대전광역시 서구 동서대로 968(변동),7430000,대전광역시교육청,7451000,대전광역시서부교육지원청,2013-11-29,2016-12-12,36.33303370000001,127.36897490000001,2017-09-05,대전광역시 서구 변동
109,B000003445,대전복수초등학교,초등학교,1985-09-05,공립,본교,운영,대전광역시 서구 복수동 272,대전광역시 서구 복수중로34번길 29(복수동),7430000,대전광역시교육청,7451000,대전광역시서부교육지원청,2013-11-29,2016-12-12,36.307763,127.3766871,2017-09-05,대전광역시 서구 복수동
110,B000003446,대전문정초등학교,초등학교,1992-05-13,공립,본교,운영,대전광역시 서구 둔산동  1813,대전광역시 서구 문정로  180(둔산동),7430000,대전광역시교육청,7451000,대전광역시서부교육지원청,2013-11-29,,36.3504964,127.3954423,2017-09-05,대전광역시 서구 둔산동
111,B000003447,대전삼천초등학교,초등학교,1973-06-05,공립,본교,운영,대전광역시 서구 둔산동 1807,대전광역시 서구 둔산북로 232-33(둔산동),7430000,대전광역시교육청,7451000,대전광역시서부교육지원청,2013-11-29,2017-01-02,36.354013200000004,127.40043940000001,2017-09-05,대전광역시 서구 둔산동
112,B000003448,대전성천초등학교,초등학교,1994-09-01,공립,본교,운영,대전광역시 서구 월평동 221,대전광역시 서구 갈마역로 139(월평동),7430000,대전광역시교육청,7451000,대전광역시서부교육지원청,2013-11-29,2016-12-12,36.362682299999996,127.37310719999999,2017-09-05,대전광역시 서구 월평동
113,B000003449,대전성룡초등학교,초등학교,1993-09-01,공립,본교,운영,대전광역시 서구 월평동 304,대전광역시 서구 갈마역로 125(월평동),7430000,대전광역시교육청,7451000,대전광역시서부교육지원청,2013-11-29,2016-12-12,36.3614641,127.3730175,2017-09-05,대전광역시 서구 월평동
114,B000003450,대전정림초등학교,초등학교,1993-03-01,공립,본교,운영,대전광역시 서구 정림동 638,대전광역시 서구 정림로 32(정림동),7430000,대전광역시교육청,7451000,대전광역시서부교육지원청,2013-11-29,2016-12-12,36.3031283,127.36614540000001,2017-09-05,대전광역시 서구 정림동
115,B000003451,대전신계초등학교,초등학교,2005-09-01,공립,본교,운영,대전광역시 서구 복수동  452,대전광역시 서구 복수동로  26(복수동),7430000,대전광역시교육청,7451000,대전광역시서부교육지원청,2013-11-29,,36.3017349,127.37787209999999,2017-09-05,대전광역시 서구 복수동
116,B000003452,대전삼육초등학교,초등학교,1952-04-01,사립,본교,운영,대전광역시 서구 도마동  163-11,대전광역시 서구 도림1길  15(도마동),7430000,대전광역시교육청,7451000,대전광역시서부교육지원청,2013-11-29,,36.3116739,127.3725847,2017-09-05,대전광역시 서구 도마동
117,B000003454,대전상원초등학교,초등학교,2012-03-01,공립,본교,운영,대전광역시 유성구 상대동  485,대전광역시 유성구 상대서로  46(상대동),7430000,대전광역시교육청,7451000,대전광역시서부교육지원청,2013-11-29,,36.342501399999996,127.3329754,2017-09-05,대전광역시 유성구 상대동
118,B000003595,중남초등학교,초등학교,1925-06-10,공립,본교,운영,울산광역시 울주군 삼남면 신화리 1485-17,울산광역시 울주군 삼남면 사촌신복로 572,7480000,울산광역시교육청,7501000,울산광역시강남교육지원청,2013-11-29,2016-09-13,35.536550299999995,129.1082363,2017-09-05,울산광역시 울주군 삼남면
119,B000004536,성신초등학교,초등학교,1997-09-01,공립,본교,운영,경기도 고양시 덕양구 행신동  929,경기도 고양시 덕양구 성신로  104(행신동),7530000,경기도교육청,7621000,경기도고양교육지원청,2013-11-29,,37.6265954,126.84030459999998,2017-09-05,경기도 고양시 덕양구
120,B000004537,행신초등학교,초등학교,1988-03-01,공립,본교,운영,경기도 고양시 덕양구 행신동  983-1,경기도 고양시 덕양구 중앙로  527(행신동),7530000,경기도교육청,7621000,경기도고양교육지원청,2013-11-29,,37.6217063,126.83699340000001,2017-09-05,경기도 고양시 덕양구
121,B000004538,행주초등학교,초등학교,1934-04-01,공립,본교,운영,경기도 고양시 덕양구 행주내동  175,,7530000,경기도교육청,7621000,경기도고양교육지원청,2013-11-29,,37.6033209,126.8246973,2017-09-05,경기도 고양시 덕양구
122,B000004539,대곡초등학교,초등학교,1974-03-01,공립,본교,운영,경기도 고양시 덕양구 대장동  226-2,경기도 고양시 덕양구 대주로  138-50(대장동),7530000,경기도교육청,7621000,경기도고양교육지원청,2013-11-29,,37.641006899999994,126.81261509999999,2017-09-05,경기도 고양시 덕양구
123,B000004540,백양초등학교,초등학교,1995-12-01,공립,본교,운영,경기도 고양시 덕양구 화정동  990,경기도 고양시 덕양구 화신로  238(화정동),7530000,경기도교육청,7621000,경기도고양교육지원청,2013-11-29,,37.6317619,126.83610049999999,2017-09-05,경기도 고양시 덕양구
124,B000004541,지도초등학교,초등학교,1996-12-01,공립,본교,운영,경기도 고양시 덕양구 화정동  1132,경기도 고양시 덕양구 성신로  49(화정동),7530000,경기도교육청,7621000,경기도고양교육지원청,2013-11-29,,37.6279291,126.83391709999998,2017-09-05,경기도 고양시 덕양구
125,B000004542,고양화수초등학교,초등학교,1995-09-01,공립,본교,운영,경기도 고양시 덕양구 화정동  860,경기도 고양시 덕양구 화수로  25(화정동),7530000,경기도교육청,7621000,경기도고양교육지원청,2013-11-29,,37.6451448,126.8327312,2017-09-05,경기도 고양시 덕양구
126,B000004543,화중초등학교,초등학교,1995-11-14,공립,본교,운영,경기도 고양시 덕양구 화정동  871,경기도 고양시 덕양구 화중로152번길  43(화정동),7530000,경기도교육청,7621000,경기도고양교육지원청,2013-11-29,,37.6405369,126.83599779999999,2017-09-05,경기도 고양시 덕양구
127,B000004544,고양화정초등학교,초등학교,1994-11-01,공립,본교,운영,경기도 고양시 덕양구 화정동  942,경기도 고양시 덕양구 화신로  333(화정동),7530000,경기도교육청,7621000,경기도고양교육지원청,2013-11-29,,37.6337354,126.82611100000001,2017-09-05,경기도 고양시 덕양구
128,B000004545,용정초등학교,초등학교,1995-12-08,공립,본교,운영,경기도 고양시 덕양구 화정동  918,경기도 고양시 덕양구 은빛로17번길  53(화정동),7530000,경기도교육청,7621000,경기도고양교육지원청,2013-11-29,,37.6402842,126.82957720000002,2017-09-05,경기도 고양시 덕양구
129,B000004546,고양초등학교,초등학교,1909-05-01,공립,본교,운영,경기도 고양시 덕양구 고양동  236,경기도 고양시 덕양구 혜음로13번길  22-7(고양동),7530000,경기도교육청,7621000,경기도고양교육지원청,2013-11-29,,37.703031700000004,126.8999337,2017-09-05,경기도 고양시 덕양구
130,B000004547,목암초등학교,초등학교,2005-03-04,공립,본교,운영,경기도 고양시 덕양구 고양동  722,경기도 고양시 덕양구 푸른마을로  63(고양동),7530000,경기도교육청,7621000,경기도고양교육지원청,2013-11-29,,37.714005,126.90466,2017-09-05,경기도 고양시 덕양구
131,B000004548,성라초등학교,초등학교,1993-03-01,공립,본교,운영,경기도 고양시 덕양구 성사동  732,경기도 고양시 덕양구 호국로716번길  13-19(성사동),7530000,경기도교육청,7621000,경기도고양교육지원청,2013-11-29,,37.6523492,126.83365069999999,2017-09-05,경기도 고양시 덕양구
132,B000004549,내유초등학교,초등학교,1958-10-31,공립,본교,운영,경기도 고양시 덕양구 내유동  431-7,경기도 고양시 덕양구 통일로  1132(내유동),7530000,경기도교육청,7621000,경기도고양교육지원청,2013-11-29,,37.7153948,126.85185659999999,2017-09-05,경기도 고양시 덕양구
133,B000004550,고양관산초등학교,초등학교,2003-11-01,공립,본교,운영,경기도 고양시 덕양구 관산동  995,경기도 고양시 덕양구 통일로726번길  130(관산동),7530000,경기도교육청,7621000,경기도고양교육지원청,2013-11-29,,37.6919217,126.8665469,2017-09-05,경기도 고양시 덕양구
134,B000004551,성사초등학교,초등학교,1987-10-30,공립,본교,운영,경기도 고양시 덕양구 성사동  716,경기도 고양시 덕양구 호국로834번길  89(성사동),7530000,경기도교육청,7621000,경기도고양교육지원청,2013-11-29,,37.6576405,126.84430459999999,2017-09-05,경기도 고양시 덕양구
135,B000004552,능곡초등학교,초등학교,1929-10-07,공립,본교,운영,경기도 고양시 덕양구 토당동  278-2,,7530000,경기도교육청,7621000,경기도고양교육지원청,2013-11-29,,37.6244511,126.81580090000001,2017-09-05,경기도 고양시 덕양구
136,B000004553,토당초등학교,초등학교,2006-03-01,공립,본교,운영,경기도 고양시 덕양구 토당동  409-12,경기도 고양시 덕양구 행신로  90(토당동),7530000,경기도교육청,7621000,경기도고양교육지원청,2013-11-29,,37.617293700000005,126.8263013,2017-09-05,경기도 고양시 덕양구
137,B000004554,소만초등학교,초등학교,1994-11-01,공립,본교,운영,경기도 고양시 덕양구 행신동  780,경기도 고양시 덕양구 화신로  48(행신동),7530000,경기도교육청,7621000,경기도고양교육지원청,2013-11-29,,37.617478600000005,126.83975509999999,2017-09-05,경기도 고양시 덕양구
138,B000004555,가람초등학교,초등학교,1996-12-01,공립,본교,운영,경기도 고양시 덕양구 행신동  926,경기도 고양시 덕양구 행신로311번길  78(행신동),7530000,경기도교육청,7621000,경기도고양교육지원청,2013-11-29,,37.6233972,126.84218940000001,2017-09-05,경기도 고양시 덕양구
139,B000004557,남양주덕송초등학교,초등학교,2012-03-01,공립,본교,운영,경기도 남양주시 별내동  813,경기도 남양주시 별내3로  356(별내동),7530000,경기도교육청,7652000,경기도구리남양주교육지원청,2013-11-29,,37.669346600000004,127.115854,2017-09-05,경기도 남양주시 별내동
140,B000004558,가운초등학교,초등학교,2008-10-01,공립,본교,운영,경기도 남양주시 가운동  677,경기도 남양주시 가운로2길  54(가운동),7530000,경기도교육청,7652000,경기도구리남양주교육지원청,2013-11-29,,37.60070770000001,127.15579550000001,2017-09-05,경기도 남양주시 가운동
141,B000004559,금교초등학교,초등학교,2001-09-01,공립,본교,운영,경기도 남양주시 도농동  2-17,경기도 남양주시 미금로  194(도농동),7530000,경기도교육청,7652000,경기도구리남양주교육지원청,2013-11-29,,37.6139033,127.16146859999999,2017-09-05,경기도 남양주시 도농동
142,B000004560,구룡초등학교,초등학교,2009-03-01,공립,본교,운영,경기도 남양주시 호평동  722,경기도 남양주시 늘을3로  120(호평동),7530000,경기도교육청,7652000,경기도구리남양주교육지원청,2013-11-29,,37.658134600000004,127.25262759999998,2017-09-05,경기도 남양주시 호평동
143,B000004777,이동초등학교,초등학교,1933-06-10,공립,본교,운영,경기도 포천시 이동면 장암리  253-1,경기도 포천시 이동면 화동로  2034,7530000,경기도교육청,7711000,경기도포천교육지원청,2013-11-29,,38.028608,127.3684761,2017-09-05,경기도 포천시 이동면
144,B000004778,청성초등학교,초등학교,1935-10-02,공립,본교,운영,경기도 포천시 군내면 직두리 740,경기도 포천시 군내면 솔밭길 12-1,7530000,경기도교육청,7711000,경기도포천교육지원청,2013-11-29,2017-05-04,37.874679,127.22337350000001,2017-09-05,경기도 포천시 군내면
145,B000004779,영중초등학교,초등학교,1954-07-01,공립,본교,운영,경기도 포천시 영중면 성동리  891-3,경기도 포천시 영중면 호국로  3054,7530000,경기도교육청,7711000,경기도포천교육지원청,2013-11-29,,38.0146045,127.2484027,2017-09-05,경기도 포천시 영중면
146,B000004780,영평초등학교,초등학교,1910-09-01,공립,본교,운영,경기도 포천시 영중면 영평리  240,,7530000,경기도교육청,7711000,경기도포천교육지원청,2013-11-29,,38.016088399999994,127.21753590000002,2017-09-05,경기도 포천시 영중면
147,B000004781,금주초등학교,초등학교,1941-09-01,공립,본교,운영,경기도 포천시 영중면 금주리  522-1,경기도 포천시 영중면 궁들길  50,7530000,경기도교육청,7711000,경기도포천교육지원청,2013-11-29,,37.9734698,127.26053370000001,2017-09-05,경기도 포천시 영중면
148,B000004782,영북초등학교,초등학교,1924-07-01,공립,본교,운영,경기도 포천시 영북면 운천리 342-2,경기도 포천시 영북면 영북로148번길 46,7530000,경기도교육청,7711000,경기도포천교육지원청,2013-11-29,2017-05-04,38.0904351,127.2763111,2017-09-05,경기도 포천시 영북면
149,B000004783,왕방초등학교,초등학교,2003-03-01,공립,본교,운영,경기도 포천시 신읍동  228,경기도 포천시 학동로  52(신읍동),7530000,경기도교육청,7711000,경기도포천교육지원청,2013-11-29,,37.904226799999996,127.20233370000001,2017-09-05,경기도 포천시 신읍동
150,B000004784,외북초등학교,초등학교,1946-12-01,공립,본교,운영,경기도 포천시 신북면 계류리  54-3,경기도 포천시 신북면 포천로  2199,7530000,경기도교육청,7711000,경기도포천교육지원청,2013-11-29,,37.9465626,127.1874841,2017-09-05,경기도 포천시 신북면
151,B000004785,신북초등학교,초등학교,1934-11-26,공립,본교,운영,경기도 포천시 신북면 신평리  375,경기도 포천시 신북면 청신로  2079-19,7530000,경기도교육청,7711000,경기도포천교육지원청,2013-11-29,,37.9383955,127.22023600000001,2017-09-05,경기도 포천시 신북면
152,B000004786,창수초등학교,초등학교,1946-04-01,공립,본교,운영,경기도 포천시 창수면 추동리  117-2,경기도 포천시 창수면 옥수로58번길  4,7530000,경기도교육청,7711000,경기도포천교육지원청,2013-11-29,,37.9897631,127.18196529999999,2017-09-05,경기도 포천시 창수면
153,B000004788,관인초등학교,초등학교,1930-04-01,공립,본교,운영,경기도 포천시 관인면 탄동리  664-1,경기도 포천시 관인면 관인로  5,7530000,경기도교육청,7711000,경기도포천교육지원청,2013-11-29,,38.1567607,127.2511476,2017-09-05,경기도 포천시 관인면
154,B000004789,포천삼정초등학교,초등학교,1944-04-01,공립,본교,운영,경기도 포천시 신북면 삼정리 405-1,경기도 포천시 신북면 청신로947번길 17,7530000,경기도교육청,7711000,경기도포천교육지원청,2013-11-29,2017-05-04,37.9640567,127.13145890000001,2017-09-05,경기도 포천시 신북면
155,B000004790,중리초등학교,초등학교,1955-08-01,공립,본교,운영,경기도 포천시 관인면 중리 209-2,경기도 포천시 관인면 창동로1071번길 21-52,7530000,경기도교육청,7711000,경기도포천교육지원청,2013-11-29,2017-05-04,38.105594200000006,127.20442879999999,2017-09-05,경기도 포천시 관인면
156,B000004791,가평마장초등학교,초등학교,1924-04-01,공립,본교,운영,경기도 가평군 가평읍 마장리  357,경기도 가평군 가평읍 각담말길  15,7530000,경기도교육청,7721000,경기도가평교육지원청,2013-11-29,,37.8600748,127.5146007,2017-09-05,경기도 가평군 가평읍
157,B000004792,가평초등학교,초등학교,1907-06-25,공립,본교,운영,경기도 가평군 가평읍 읍내리 553,,7530000,경기도교육청,7721000,경기도가평교육지원청,2013-11-29,2016-09-19,37.8307432,127.50748929999999,2017-09-05,경기도 가평군 가평읍
158,B000004793,상색초등학교,초등학교,1936-04-20,공립,본교,운영,경기도 가평군 가평읍 상색리 171-2,경기도 가평군 가평읍 태봉두밀로 34-31,7530000,경기도교육청,7721000,경기도가평교육지원청,2013-11-29,2016-08-08,37.8052976,127.4850606,2017-09-05,경기도 가평군 가평읍
159,B000004794,대성초등학교,초등학교,1958-04-28,공립,본교,운영,경기도 가평군 청평면 대성리  399-16,경기도 가평군 청평면 경춘로  75,7530000,경기도교육청,7721000,경기도가평교육지원청,2013-11-29,,37.682755,127.37771470000001,2017-09-05,경기도 가평군 청평면
160,B000004795,상천초등학교,초등학교,1945-05-25,공립,본교,운영,경기도 가평군 청평면 상천리 1338,경기도 가평군 청평면 상천역로19번길 38,7530000,경기도교육청,7721000,경기도가평교육지원청,2013-11-29,2016-09-19,37.7703749,127.45623300000001,2017-09-05,경기도 가평군 청평면
161,B000004796,청평초등학교,초등학교,1928-07-02,공립,본교,운영,경기도 가평군 설악면 청평리 527  이투스학원,경기도 가평군 유명로 2285  이투스학원,7530000,경기도교육청,7721000,경기도가평교육지원청,2013-11-29,2015-06-30,37.737701200000004,127.42188610000001,2017-09-05,경기도 가평군 설악면
162,B000004797,율길초등학교,초등학교,1944-04-01,공립,본교,운영,경기도 가평군 상면 율길리 454-1,,7530000,경기도교육청,7721000,경기도가평교육지원청,2013-11-29,2016-08-08,37.8377414,127.2884746,2017-09-05,경기도 가평군 상면
163,B000004798,연하초등학교,초등학교,1955-04-01,공립,본교,운영,경기도 가평군 상면 연하리 452-1,경기도 가평군 상면 비룡로 2199-19,7530000,경기도교육청,7721000,경기도가평교육지원청,2013-11-29,2016-08-08,37.8031925,127.34250540000001,2017-09-05,경기도 가평군 상면
164,B000004799,상면초등학교,초등학교,1934-11-01,공립,본교,운영,경기도 가평군 상면 임초리 445-3,경기도 가평군 상면 청군로 700-22,7530000,경기도교육청,7721000,경기도가평교육지원청,2013-11-29,2016-09-19,37.7760635,127.3711377,2017-09-05,경기도 가평군 상면
165,B000004800,조종초등학교,초등학교,1923-05-27,공립,본교,운영,경기도 가평군 하면 현리  276,경기도 가평군 하면 조종새싹로  13-9,7530000,경기도교육청,7721000,경기도가평교육지원청,2013-11-29,,37.8213646,127.3490916,2017-09-05,경기도 가평군 하면
166,B000004801,목동초등학교,초등학교,1999-09-01,공립,본교,운영,경기도 가평군 북면 이곡리 13-45,경기도 가평군 북면 석장모루길 13,7530000,경기도교육청,7721000,경기도가평교육지원청,2013-11-29,2016-09-13,37.8799032,127.5492824,2017-09-05,경기도 가평군 북면
167,B000004464,조현초등학교,초등학교,1944-04-01,공립,본교,운영,경기도 양평군 용문면 조현리  171-1,경기도 양평군 용문면 중원산로  157,7530000,경기도교육청,7731000,경기도양평교육지원청,2013-11-29,,37.5225264,127.61613390000001,2017-09-05,경기도 양평군 용문면
168,B000004465,양평단월초등학교,초등학교,1934-04-14,공립,본교,운영,경기도 양평군 단월면 보룡리 346-1,경기도 양평군 단월면 보룡길 65,7530000,경기도교육청,7731000,경기도양평교육지원청,2013-11-29,2017-02-06,37.5393241,127.67268090000002,2017-09-05,경기도 양평군 단월면
169,B000004466,청운초등학교,초등학교,1924-04-18,공립,본교,운영,경기도 양평군 청운면 용두리  510-2,경기도 양평군 청운면 용두로156번길  30,7530000,경기도교육청,7731000,경기도양평교육지원청,2013-11-29,,37.554570500000004,127.7133847,2017-09-05,경기도 양평군 청운면
170,B000004467,곡수초등학교,초등학교,1944-09-01,공립,본교,운영,경기도 양평군 지평면 곡수리  387-1,경기도 양평군 지평면 곡수길56번길  17,7530000,경기도교육청,7731000,경기도양평교육지원청,2013-11-29,,37.418355700000006,127.61148850000001,2017-09-05,경기도 양평군 지평면
171,B000004468,지평초등학교,초등학교,1932-04-18,공립,본교,운영,경기도 양평군 지평면 지평리  502-2,경기도 양평군 지평면 지평의병로  107,7530000,경기도교육청,7731000,경기도양평교육지원청,2013-11-29,,37.475621200000006,127.6377367,2017-09-05,경기도 양평군 지평면
172,B000004469,양동초등학교,초등학교,1931-04-01,공립,본교,운영,경기도 양평군 양동면 석곡리  190,경기도 양평군 양동면 양동로  1671,7530000,경기도교육청,7731000,경기도양평교육지원청,2013-11-29,,37.4304294,127.74988529999999,2017-09-05,경기도 양평군 양동면
173,B000004470,개군초등학교,초등학교,1929-05-03,공립,본교,운영,경기도 양평군 개군면 하자포리  276-1,경기도 양평군 개군면 자진개1길  23,7530000,경기도교육청,7731000,경기도양평교육지원청,2013-11-29,,37.4278354,127.53434650000001,2017-09-05,경기도 양평군 개군면
174,B000004471,강상초등학교,초등학교,1935-11-02,공립,본교,운영,경기도 양평군 강상면 신화리  242,경기도 양평군 강상면 신화길  86,7530000,경기도교육청,7731000,경기도양평교육지원청,2013-11-29,,37.47357279999999,127.47915249999998,2017-09-05,경기도 양평군 강상면
175,B000004472,세월초등학교,초등학교,1964-04-01,공립,본교,운영,경기도 양평군 강상면 세월리  126-1,경기도 양평군 강상면 세월길147번길  2,7530000,경기도교육청,7731000,경기도양평교육지원청,2013-11-29,,37.4364668,127.49465900000001,2017-09-05,경기도 양평군 강상면
176,B000004473,강하초등학교,초등학교,1934-11-15,공립,본교,운영,경기도 양평군 강하면 운심리  43-2,경기도 양평군 강하면 운심길  33,7530000,경기도교육청,7731000,경기도양평교육지원청,2013-11-29,,37.4963562,127.4094414,2017-09-05,경기도 양평군 강하면
177,B000004474,수입초등학교,초등학교,1948-07-01,공립,본교,운영,경기도 양평군 서종면 수입리  673,경기도 양평군 서종면 무드리2길  20,7530000,경기도교육청,7731000,경기도양평교육지원청,2013-11-29,,37.6448297,127.3753105,2017-09-05,경기도 양평군 서종면
178,B000004475,정배초등학교,초등학교,2014-03-01,공립,본교,운영,경기도 양평군 서종면 정배리 330,경기도 양평군 서종면 명덕길 10,7530000,경기도교육청,7731000,경기도양평교육지원청,2013-11-29,2017-02-06,37.6028528,127.42296090000002,2017-09-05,경기도 양평군 서종면
179,B000004476,양동초등학교고송분교장,초등학교,1936-04-15,공립,분교,운영,경기도 양평군 양동면 고송리  821-1,경기도 양평군 양동면 고송길  32-16,7530000,경기도교육청,7731000,경기도양평교육지원청,2013-11-29,,37.48657,127.6999157,2017-09-05,경기도 양평군 양동면
180,B000004477,모당초등학교,초등학교,2008-03-01,공립,본교,운영,경기도 고양시 일산동구 중산동  1684,경기도 고양시 일산동구 하늘마을로  144(중산동),7530000,경기도교육청,7621000,경기도고양교육지원청,2013-11-29,,37.67953060000001,126.7813027,2017-09-05,경기도 고양시 일산동구
181,B000004478,하늘초등학교,초등학교,2007-09-01,공립,본교,운영,경기도 고양시 일산동구 중산동  1799,경기도 고양시 일산동구 하늘마을1로  46(중산동),7530000,경기도교육청,7621000,경기도고양교육지원청,2013-11-29,,37.6772518,126.7901368,2017-09-05,경기도 고양시 일산동구
182,B000004479,풍산초등학교,초등학교,2002-03-02,공립,본교,운영,경기도 고양시 일산동구 풍동  1284,경기도 고양시 일산동구 숲속마을로  51(풍동),7530000,경기도교육청,7621000,경기도고양교육지원청,2013-11-29,,37.6663923,126.7969663,2017-09-05,경기도 고양시 일산동구
183,B000004480,다솜초등학교,초등학교,2006-09-01,공립,본교,운영,경기도 고양시 일산동구 풍동  1232,경기도 고양시 일산동구 숲속마을로  139(풍동),7530000,경기도교육청,7621000,경기도고양교육지원청,2013-11-29,,37.6725071,126.79666370000001,2017-09-05,경기도 고양시 일산동구
184,B000004481,풍동초등학교,초등학교,2006-09-01,공립,본교,운영,경기도 고양시 일산동구 풍동  1266,경기도 고양시 일산동구 숲속마을로  14-43(풍동),7530000,경기도교육청,7621000,경기도고양교육지원청,2013-11-29,,37.669396,126.802608,2017-09-05,경기도 고양시 일산동구
185,B000004482,고양백석초등학교,초등학교,1992-09-04,공립,본교,운영,경기도 고양시 일산동구 백석동  1188,경기도 고양시 일산동구 강촌로  140(백석동),7530000,경기도교육청,7621000,경기도고양교육지원청,2013-11-29,,37.6517894,126.7892804,2017-09-05,경기도 고양시 일산동구
186,B000004483,저동초등학교,초등학교,1995-03-01,공립,본교,운영,경기도 고양시 일산동구 정발산동  688,경기도 고양시 일산동구 대산로11번길  37(정발산동),7530000,경기도교육청,7621000,경기도고양교육지원청,2013-11-29,,37.6678704,126.77422759999999,2017-09-05,경기도 고양시 일산동구
187,B000004484,벽제초등학교,초등학교,1946-04-01,공립,본교,운영,경기도 고양시 일산동구 사리현동  122-2,,7530000,경기도교육청,7621000,경기도고양교육지원청,2013-11-29,,37.6958611,126.8435253,2017-09-05,경기도 고양시 일산동구
188,B000004485,성석초등학교,초등학교,1945-10-31,공립,본교,운영,경기도 고양시 일산동구 문봉동  203-6,경기도 고양시 일산동구 문봉길  110(문봉동),7530000,경기도교육청,7621000,경기도고양교육지원청,2013-11-29,,37.7072274,126.8122184,2017-09-05,경기도 고양시 일산동구
189,B000004486,백마초등학교,초등학교,1946-09-01,공립,본교,운영,경기도 고양시 일산동구 마두동  718,경기도 고양시 일산동구 일산로  230(마두동),7530000,경기도교육청,7621000,경기도고양교육지원청,2013-11-29,,37.6574752,126.7910808,2017-09-05,경기도 고양시 일산동구
190,B000004656,어룡초등학교,초등학교,2002-09-01,공립,본교,운영,경기도 의정부시 용현동  547-5,경기도 의정부시 부용로  241(용현동),7530000,경기도교육청,7561000,경기도의정부교육지원청,2013-11-29,,37.7477216,127.082246,2017-09-05,경기도 의정부시 용현동
191,B000003599,두서초등학교,초등학교,1927-11-01,공립,본교,운영,울산광역시 울주군 두서면 인보리 459-2,울산광역시 울주군 두서면 인보로 87,7480000,울산광역시교육청,7501000,울산광역시강남교육지원청,2013-11-29,2016-12-28,35.6428958,129.1583209,2017-09-05,울산광역시 울주군 두서면
192,B000003600,두동초등학교,초등학교,1923-09-01,공립,본교,운영,울산광역시 울주군 두동면 구미리 650-1,울산광역시 울주군 두동면 대밀길 29,7480000,울산광역시교육청,7501000,울산광역시강남교육지원청,2013-11-29,2016-08-23,35.654758,129.2022579,2017-09-05,울산광역시 울주군 두동면
193,B000003601,청량초등학교,초등학교,1927-06-01,공립,본교,운영,울산광역시 울주군 청량면 덕하리 412-2,울산광역시 울주군 청량면 덕정5길 14,7480000,울산광역시교육청,7501000,울산광역시강남교육지원청,2013-11-29,2016-09-13,35.4866403,129.2972355,2017-09-05,울산광역시 울주군 청량면
194,B000003602,문수초등학교,초등학교,1948-09-01,공립,본교,운영,울산광역시 울주군 청량면 율리 390,울산광역시 울주군 청량면 청송길 8,7480000,울산광역시교육청,7501000,울산광역시강남교육지원청,2013-11-29,2016-08-23,35.5191632,129.2405385,2017-09-05,울산광역시 울주군 청량면
195,B000003603,삼정초등학교,초등학교,2002-03-01,공립,본교,운영,울산광역시 울주군 청량면 삼정리 786-1,울산광역시 울주군 청량면 삼정로 36,7480000,울산광역시교육청,7501000,울산광역시강남교육지원청,2013-11-29,2016-08-24,35.49083529999999,129.23355279999998,2017-09-05,울산광역시 울주군 청량면
196,B000003604,검단초등학교,초등학교,1947-07-17,공립,본교,운영,울산광역시 울주군 웅촌면 검단리 603-3,울산광역시 울주군 웅촌면 은현작동로 58,7480000,울산광역시교육청,7501000,울산광역시강남교육지원청,2013-11-29,2016-08-23,35.4576649,129.1775887,2017-09-05,울산광역시 울주군 웅촌면
197,B000003605,웅촌초등학교,초등학교,1922-06-01,공립,본교,운영,울산광역시 울주군 웅촌면 곡천리 304,울산광역시 울주군 웅촌면 곡천검단로 4,7480000,울산광역시교육청,7501000,울산광역시강남교육지원청,2013-11-29,2016-09-13,35.464177500000005,129.2072259,2017-09-05,울산광역시 울주군 웅촌면
198,B000003606,성동초등학교,초등학교,1938-04-27,공립,본교,운영,울산광역시 울주군 서생면 서생리 387,울산광역시 울주군 서생면 진하길 7,7480000,울산광역시교육청,7501000,울산광역시강남교육지원청,2013-11-29,2016-09-13,35.3854334,129.3417183,2017-09-05,울산광역시 울주군 서생면
199,B000003607,명산초등학교,초등학교,1944-03-20,공립,본교,운영,울산광역시 울주군 서생면 명산리 504,울산광역시 울주군 서생면 화산발리로 60,7480000,울산광역시교육청,7501000,울산광역시강남교육지원청,2013-11-29,2016-08-23,35.3509377,129.29579170000002,2017-09-05,울산광역시 울주군 서생면
200,B000003608,서생초등학교,초등학교,1923-04-01,공립,본교,운영,울산광역시 울주군 서생면 신암리 223,울산광역시 울주군 서생면 신암해안길 58,7480000,울산광역시교육청,7501000,울산광역시강남교육지원청,2013-11-29,2016-09-13,35.349242100000005,129.3270707,2017-09-05,울산광역시 울주군 서생면
201,B000003609,삼동초등학교,초등학교,1927-09-12,공립,본교,운영,울산광역시 울주군 삼동면 하잠리 953-2,울산광역시 울주군 삼동면 삼동로 788,7480000,울산광역시교육청,7501000,울산광역시강남교육지원청,2013-11-29,2016-08-24,35.5239153,129.15911,2017-09-05,울산광역시 울주군 삼동면
202,B000003611,상북초등학교소호분교,초등학교,1944-04-01,공립,분교,운영,울산광역시 울주군 상북면 소호리 376-3,울산광역시 울주군 상북면 소호당리길 1,7480000,울산광역시교육청,7501000,울산광역시강남교육지원청,2013-11-29,2016-12-06,35.6705174,129.08628090000002,2017-09-05,울산광역시 울주군 상북면
203,B000003613,곡정초등학교,초등학교,2011-11-01,공립,본교,운영,경기도 수원시 권선구 권선동  1358,경기도 수원시 권선구 곡선로  7(권선동),7530000,경기도교육청,7541000,경기도수원교육지원청,2013-11-29,,37.240860299999994,127.02569,2017-09-05,경기도 수원시 권선구
204,B000003614,선행초등학교,초등학교,2011-10-01,공립,본교,운영,경기도 수원시 권선구 권선동  1331,경기도 수원시 권선구 세권로196번길  21(권선동),7530000,경기도교육청,7541000,경기도수원교육지원청,2013-11-29,,37.254250899999995,127.02567179999998,2017-09-05,경기도 수원시 권선구
205,B000003615,수원중촌초등학교,초등학교,2012-03-01,공립,본교,운영,경기도 수원시 권선구 금곡동  303-1,경기도 수원시 권선구 금곡로140번길  30(금곡동),7530000,경기도교육청,7541000,경기도수원교육지원청,2013-11-29,,37.2724561,126.9443743,2017-09-05,경기도 수원시 권선구
206,B000003616,능실초등학교,초등학교,2012-03-01,공립,본교,운영,경기도 수원시 권선구 호매실동  1012,,7530000,경기도교육청,7541000,경기도수원교육지원청,2013-11-29,,37.2597345,126.9559537,2017-09-05,경기도 수원시 권선구
207,B000003617,광교초등학교,초등학교,2011-09-01,공립,본교,운영,경기도 수원시 영통구 이의동  1208,경기도 수원시 영통구 대학로  91(이의동),7530000,경기도교육청,7541000,경기도수원교육지원청,2013-11-29,,37.3037928,127.0458393,2017-09-05,경기도 수원시 영통구
208,B000003618,이의초등학교,초등학교,2011-10-04,공립,본교,운영,경기도 수원시 영통구 하동  993,경기도 수원시 영통구 법조로150번길  47(하동),7530000,경기도교육청,7541000,경기도수원교육지원청,2013-11-29,,37.2929807,127.07545790000002,2017-09-05,경기도 수원시 영통구
209,B000003619,수성초등학교,초등학교,2002-03-02,공립,본교,운영,경기도 수원시 장안구 조원동  843,경기도 수원시 장안구 금당로  19(조원동),7530000,경기도교육청,7541000,경기도수원교육지원청,2013-11-29,,37.3055569,127.01400790000001,2017-09-05,경기도 수원시 장안구
210,B000003620,송원초등학교,초등학교,1999-08-30,공립,본교,운영,경기도 수원시 장안구 조원동  872,경기도 수원시 장안구 수일로  185(조원동),7530000,경기도교육청,7541000,경기도수원교육지원청,2013-11-29,,37.308309200000004,127.00993829999999,2017-09-05,경기도 수원시 장안구
211,B000003621,한일초등학교,초등학교,1999-08-30,공립,본교,운영,경기도 수원시 장안구 조원동  882,경기도 수원시 장안구 수일로  150(조원동),7530000,경기도교육청,7541000,경기도수원교육지원청,2013-11-29,,37.3069114,127.00540500000001,2017-09-05,경기도 수원시 장안구
212,B000003622,효천초등학교,초등학교,2001-09-01,공립,본교,운영,경기도 수원시 장안구 정자동  923,경기도 수원시 장안구 천천로21번길  11(정자동),7530000,경기도교육청,7541000,경기도수원교육지원청,2013-11-29,,37.293254499999996,126.98663049999999,2017-09-05,경기도 수원시 장안구
213,B000003762,야탑초등학교,초등학교,1993-03-02,공립,본교,운영,경기도 성남시 분당구 야탑동  333,경기도 성남시 분당구 양현로  400(야탑동),7530000,경기도교육청,7551000,경기도성남교육지원청,2013-11-29,,37.4163135,127.12588410000001,2017-09-05,경기도 성남시 분당구
214,B000004752,덕도초등학교,초등학교,1971-03-01,공립,본교,운영,경기도 양주시 광적면 석우리  525-14,경기도 양주시 광적면 광적로224번길  122,7530000,경기도교육청,7602000,경기도동두천양주교육지원청,2013-11-29,,37.8404432,126.9772642,2017-09-05,경기도 양주시 광적면
215,B000004753,봉암초등학교,초등학교,1963-06-20,공립,본교,운영,경기도 양주시 은현면 봉암리 403-3,경기도 양주시 은현면 삼육사로 473,7530000,경기도교육청,7602000,경기도동두천양주교육지원청,2013-11-29,2017-02-01,37.9105075,127.00586750000001,2017-09-05,경기도 양주시 은현면
216,B000004754,상패초등학교,초등학교,1947-03-20,공립,본교,운영,경기도 양주시 은현면 하패리  796-4,경기도 양주시 은현면 은현로312번길  121-208,7530000,경기도교육청,7602000,경기도동두천양주교육지원청,2013-11-29,,37.8978836,127.02650700000001,2017-09-05,경기도 양주시 은현면
217,B000004755,은현초등학교,초등학교,1935-09-01,공립,본교,운영,경기도 양주시 은현면 선암리  553-2,경기도 양주시 은현면 화합로  912-20,7530000,경기도교육청,7602000,경기도동두천양주교육지원청,2013-11-29,,37.8643435,127.02307759999998,2017-09-05,경기도 양주시 은현면
218,B000004756,상수초등학교,초등학교,1955-03-29,공립,본교,운영,경기도 양주시 남면 상수리  443-2,경기도 양주시 남면 화합로  503,7530000,경기도교육청,7602000,경기도동두천양주교육지원청,2013-11-29,,37.8686306,126.987733,2017-09-05,경기도 양주시 남면
219,B000004757,남면초등학교,초등학교,1921-08-20,공립,본교,운영,경기도 양주시 남면 신산리  286-2,경기도 양주시 남면 개나리18길  100,7530000,경기도교육청,7602000,경기도동두천양주교육지원청,2013-11-29,,37.8940365,126.97506170000001,2017-09-05,경기도 양주시 남면
220,B000004758,남면초등학교양덕분교장,초등학교,1967-03-01,공립,분교,운영,경기도 양주시 남면 한산리  272-1,경기도 양주시 남면 은남로119번길  373,7530000,경기도교육청,7602000,경기도동두천양주교육지원청,2013-11-29,,37.9086297,126.9986702,2017-09-05,경기도 양주시 남면
221,B000004759,선단초등학교,초등학교,1946-09-01,공립,본교,운영,경기도 포천시 선단동  765-1,경기도 포천시 삼육사로2111번길  29(선단동),7530000,경기도교육청,7711000,경기도포천교육지원청,2013-11-29,,37.8616424,127.1553556,2017-09-05,경기도 포천시 선단동
222,B000004760,포천초등학교,초등학교,1911-09-01,공립,본교,운영,경기도 포천시 신읍동  133,경기도 포천시 신읍길  40(신읍동),7530000,경기도교육청,7711000,경기도포천교육지원청,2013-11-29,,37.8967586,127.19718390000001,2017-09-05,경기도 포천시 신읍동
223,B000004761,이곡초등학교,초등학교,1935-04-01,공립,본교,운영,경기도 포천시 소흘읍 이곡리  197,경기도 포천시 소흘읍 이곡길  5,7530000,경기도교육청,7711000,경기도포천교육지원청,2013-11-29,,37.7782698,127.14885679999999,2017-09-05,경기도 포천시 소흘읍
224,B000004762,추산초등학교,초등학교,1998-10-31,공립,본교,운영,경기도 포천시 소흘읍 송우리  728-11,경기도 포천시 소흘읍 솔모루로3번길  52-20,7530000,경기도교육청,7711000,경기도포천교육지원청,2013-11-29,,37.8257644,127.13671470000001,2017-09-05,경기도 포천시 소흘읍
225,B000004763,태봉초등학교,초등학교,2006-06-07,공립,본교,운영,경기도 포천시 소흘읍 송우리  725-4,경기도 포천시 소흘읍 송선로  8,7530000,경기도교육청,7711000,경기도포천교육지원청,2013-11-29,,37.834518599999996,127.14488329999999,2017-09-05,경기도 포천시 소흘읍
226,B000004764,신봉초등학교,초등학교,2005-03-01,공립,본교,운영,경기도 포천시 소흘읍 송우리  727-4,경기도 포천시 소흘읍 송우로  98,7530000,경기도교육청,7711000,경기도포천교육지원청,2013-11-29,,37.831853100000004,127.13889309999999,2017-09-05,경기도 포천시 소흘읍
227,B000004765,송우초등학교,초등학교,1920-12-09,공립,본교,운영,경기도 포천시 소흘읍 송우리  214,경기도 포천시 소흘읍 송우로  42,7530000,경기도교육청,7711000,경기도포천교육지원청,2013-11-29,,37.8295161,127.14338470000001,2017-09-05,경기도 포천시 소흘읍
228,B000004766,축석초등학교,초등학교,1970-03-02,공립,본교,운영,경기도 포천시 소흘읍 이동교리  645,경기도 포천시 소흘읍 무란1길  25,7530000,경기도교육청,7711000,경기도포천교육지원청,2013-11-29,,37.7881923,127.12210790000002,2017-09-05,경기도 포천시 소흘읍
229,B000004767,유암초등학교,초등학교,1971-04-18,공립,본교,운영,경기도 포천시 가산면 감암리 503-1,경기도 포천시 가산면 유교로88번길 8,7530000,경기도교육청,7711000,경기도포천교육지원청,2013-11-29,2017-05-04,37.8684898,127.1926256,2017-09-05,경기도 포천시 가산면
230,B000004768,정교초등학교,초등학교,1966-12-14,공립,본교,운영,경기도 포천시 가산면 정교리  549-2,경기도 포천시 가산면 정금로  77,7530000,경기도교육청,7711000,경기도포천교육지원청,2013-11-29,,37.8152429,127.1696832,2017-09-05,경기도 포천시 가산면
231,B000004769,가산초등학교,초등학교,1931-12-01,공립,본교,운영,경기도 포천시 가산면 마산리  606-2,,7530000,경기도교육청,7711000,경기도포천교육지원청,2013-11-29,,37.847930700000006,127.18504329999999,2017-09-05,경기도 포천시 가산면
232,B000004770,내촌초등학교,초등학교,1930-12-17,공립,본교,운영,경기도 포천시 내촌면 내리  316-1,경기도 포천시 내촌면 내촌로  88,7530000,경기도교육청,7711000,경기도포천교육지원청,2013-11-29,,37.78688270000001,127.23007040000002,2017-09-05,경기도 포천시 내촌면
233,B000004771,지현초등학교,초등학교,1966-09-01,공립,본교,운영,경기도 포천시 화현면 지현리  279-6,경기도 포천시 화현면 봉화로  926-9,7530000,경기도교육청,7711000,경기도포천교육지원청,2013-11-29,,37.9285908,127.26483870000001,2017-09-05,경기도 포천시 화현면
234,B000004772,화현초등학교,초등학교,1934-04-15,공립,본교,운영,경기도 포천시 화현면 화현리  847-1,경기도 포천시 화현면 달인동로1길  29,7530000,경기도교육청,7711000,경기도포천교육지원청,2013-11-29,,37.9018988,127.2846733,2017-09-05,경기도 포천시 화현면
235,B000004773,일동초등학교,초등학교,1923-07-12,공립,본교,운영,경기도 포천시 일동면 기산리  281-1,경기도 포천시 일동면 화동로  1019,7530000,경기도교육청,7711000,경기도포천교육지원청,2013-11-29,,37.9549201,127.3145087,2017-09-05,경기도 포천시 일동면
236,B000004774,운담초등학교,초등학교,1956-07-12,공립,본교,운영,경기도 포천시 일동면 화대리  608-2,경기도 포천시 일동면 화동로  1239,7530000,경기도교육청,7711000,경기도포천교육지원청,2013-11-29,,37.9719185,127.3295571,2017-09-05,경기도 포천시 일동면
237,B000004775,포천노곡초등학교,초등학교,1962-05-20,공립,본교,운영,경기도 포천시 이동면 노곡리 846-6,경기도 포천시 이동면 성장로869번길 4,7530000,경기도교육청,7711000,경기도포천교육지원청,2013-11-29,2017-05-04,38.0081356,127.33538870000001,2017-09-05,경기도 포천시 이동면
238,B000004413,마전초등학교,초등학교,1958-04-30,공립,본교,운영,경기도 안성시 삼죽면 마전리  37-1,경기도 안성시 삼죽면 서동대로  5915,7530000,경기도교육청,7761000,경기도안성교육지원청,2013-11-29,,37.0306966,127.3413202,2017-09-05,경기도 안성시 삼죽면
239,B000004414,삼죽초등학교,초등학교,1925-05-05,공립,본교,운영,경기도 안성시 삼죽면 덕산리  269,경기도 안성시 삼죽면 삼죽초교길  20,7530000,경기도교육청,7761000,경기도안성교육지원청,2013-11-29,,37.0759917,127.37370179999999,2017-09-05,경기도 안성시 삼죽면
240,B000004415,광선초등학교,초등학교,1936-04-19,공립,본교,운영,경기도 안성시 죽산면 두교리  265-3,,7530000,경기도교육청,7761000,경기도안성교육지원청,2013-11-29,,37.008057,127.4335311,2017-09-05,경기도 안성시 죽산면
241,B000004416,죽산초등학교,초등학교,1911-06-08,공립,본교,운영,경기도 안성시 죽산면 죽산리  405-2,,7530000,경기도교육청,7761000,경기도안성교육지원청,2013-11-29,,37.077574299999995,127.42102659999998,2017-09-05,경기도 안성시 죽산면
242,B000004417,일죽초등학교,초등학교,1924-02-01,공립,본교,운영,경기도 안성시 일죽면 주천리  300,경기도 안성시 일죽면 주래본죽로  72,7530000,경기도교육청,7761000,경기도안성교육지원청,2013-11-29,,37.092102399999995,127.48194199999999,2017-09-05,경기도 안성시 일죽면
243,B000004418,방초초등학교,초등학교,1964-03-02,공립,본교,운영,경기도 안성시 일죽면 방초리  459-2,경기도 안성시 일죽면 사실로  86,7530000,경기도교육청,7761000,경기도안성교육지원청,2013-11-29,,37.1197988,127.4335344,2017-09-05,경기도 안성시 일죽면
244,B000004419,죽화초등학교,초등학교,1944-05-06,공립,본교,운영,경기도 안성시 일죽면 화곡리  730,경기도 안성시 일죽면 죽화로  297,7530000,경기도교육청,7761000,경기도안성교육지원청,2013-11-29,,37.107487799999994,127.45833359999999,2017-09-05,경기도 안성시 일죽면
245,B000004420,고삼초등학교,초등학교,1930-12-15,공립,본교,운영,경기도 안성시 고삼면 가유리  329-1,경기도 안성시 고삼면 고삼호수로  37,7530000,경기도교육청,7761000,경기도안성교육지원청,2013-11-29,,37.082548200000005,127.2645138,2017-09-05,경기도 안성시 고삼면
246,B000004421,양성초등학교,초등학교,1910-04-01,공립,본교,운영,경기도 안성시 양성면 동항리  408-1,,7530000,경기도교육청,7761000,경기도안성교육지원청,2013-11-29,,37.0613816,127.19513810000001,2017-09-05,경기도 안성시 양성면
247,B000004422,미곡초등학교,초등학교,1940-11-16,공립,본교,운영,경기도 안성시 양성면 노곡리  443,경기도 안성시 양성면 안성맞춤대로  2304-9,7530000,경기도교육청,7761000,경기도안성교육지원청,2013-11-29,,37.1104881,127.2451615,2017-09-05,경기도 안성시 양성면
248,B000004423,원곡초등학교성은분교장,초등학교,1937-05-17,공립,분교,운영,경기도 안성시 원곡면 성은리  35-1,경기도 안성시 원곡면 통심길  92,7530000,경기도교육청,7761000,경기도안성교육지원청,2013-11-29,,37.0770979,127.16007420000001,2017-09-05,경기도 안성시 원곡면
249,B000004424,금광초등학교조령분교장,초등학교,2000-09-01,공립,분교,운영,경기도 안성시 금광면 사흥리  631-2,경기도 안성시 금광면 사흥길  59,7530000,경기도교육청,7761000,경기도안성교육지원청,2013-11-29,,37.0009596,127.35795759999999,2017-09-05,경기도 안성시 금광면
250,B000004425,보개초등학교가율분교장,초등학교,1972-03-01,공립,분교,운영,경기도 안성시 보개면 이전리  347-2,경기도 안성시 보개면 보개원삼로  649,7530000,경기도교육청,7761000,경기도안성교육지원청,2013-11-29,,37.0601739,127.29586259999999,2017-09-05,경기도 안성시 보개면
251,B000004426,세종초등학교,초등학교,2005-09-01,공립,본교,운영,경기도 여주시 교동  121-7,경기도 여주시 세종로  204-19(교동),7530000,경기도교육청,7661000,경기도여주교육지원청,2013-11-29,,37.2796966,127.63375729999998,2017-09-05,경기도 여주시 교동
252,B000004427,연라초등학교,초등학교,1975-03-15,공립,본교,운영,경기도 여주시 월송동  313-42,경기도 여주시 여주남로  116(월송동),7530000,경기도교육청,7661000,경기도여주교육지원청,2013-11-29,,37.277869,127.6115737,2017-09-05,경기도 여주시 월송동
253,B000004428,점봉초등학교,초등학교,1939-06-01,공립,본교,운영,경기도 여주시 점봉동  336,경기도 여주시 세종로  488-4(점봉동),7530000,경기도교육청,7661000,경기도여주교육지원청,2013-11-29,,37.2569409,127.64484740000002,2017-09-05,경기도 여주시 점봉동
254,B000004429,여흥초등학교,초등학교,1966-03-02,공립,본교,운영,경기도 여주시 상동  108,경기도 여주시 여양로  103(상동),7530000,경기도교육청,7661000,경기도여주교육지원청,2013-11-29,,37.293694200000004,127.643728,2017-09-05,경기도 여주시 상동
255,B000004430,여주초등학교,초등학교,1908-05-27,공립,본교,운영,경기도 여주시 창동  8,경기도 여주시 청심로  139(창동),7530000,경기도교육청,7661000,경기도여주교육지원청,2013-11-29,,37.298500700000005,127.63597879999999,2017-09-05,경기도 여주시 창동
256,B000004431,오학초등학교,초등학교,1958-10-06,공립,본교,운영,경기도 여주시 오학동  105-1,경기도 여주시 도예로  117(오학동),7530000,경기도교육청,7661000,경기도여주교육지원청,2013-11-29,,37.3124123,127.6473969,2017-09-05,경기도 여주시 오학동
257,B000004432,매류초등학교,초등학교,1958-04-01,공립,본교,운영,경기도 여주시 능서면 마래리  143,경기도 여주시 능서면 양화로  592,7530000,경기도교육청,7661000,경기도여주교육지원청,2013-11-29,,37.2736696,127.55743670000001,2017-09-05,경기도 여주시 능서면
258,B000004433,능북초등학교,초등학교,1964-04-07,공립,본교,운영,경기도 여주시 능서면 백석리  442,,7530000,경기도교육청,7661000,경기도여주교육지원청,2013-11-29,,37.3331316,127.59195940000001,2017-09-05,경기도 여주시 능서면
259,B000004434,능서초등학교,초등학교,1931-04-02,공립,본교,운영,경기도 여주시 능서면 신지리  786-1,경기도 여주시 능서면 마장로  64,7530000,경기도교육청,7661000,경기도여주교육지원청,2013-11-29,,37.297945299999995,127.5720938,2017-09-05,경기도 여주시 능서면
260,B000004435,문장초등학교,초등학교,1944-05-01,공립,본교,운영,경기도 여주시 흥천면 문장리  373-1,경기도 여주시 흥천면 문바실길  20,7530000,경기도교육청,7661000,경기도여주교육지원청,2013-11-29,,37.3607109,127.5122459,2017-09-05,경기도 여주시 흥천면
261,B000004436,흥천초등학교,초등학교,1930-08-23,공립,본교,운영,경기도 여주시 흥천면 효지리  377-3,경기도 여주시 흥천면 효자로  155,7530000,경기도교육청,7661000,경기도여주교육지원청,2013-11-29,,37.3323515,127.54121609999999,2017-09-05,경기도 여주시 흥천면
262,B000004437,이포초등학교,초등학교,1919-04-01,공립,본교,운영,경기도 여주시 금사면 이포리  311-2,경기도 여주시 금사면 이여로  1237,7530000,경기도교육청,7661000,경기도여주교육지원청,2013-11-29,,37.3886539,127.530078,2017-09-05,경기도 여주시 금사면
263,B000004657,송양초등학교,초등학교,1950-04-01,공립,본교,운영,경기도 의정부시 낙양동  205,경기도 의정부시 민락로  349(낙양동),7530000,경기도교육청,7561000,경기도의정부교육지원청,2013-11-29,,37.7528188,127.1117452,2017-09-05,경기도 의정부시 낙양동
264,B000004658,민락초등학교,초등학교,1999-09-01,공립,본교,운영,경기도 의정부시 민락동  692-2,경기도 의정부시 용현로159번길  26(민락동),7530000,경기도교육청,7561000,경기도의정부교육지원청,2013-11-29,,37.7418086,127.09477720000001,2017-09-05,경기도 의정부시 민락동
265,B000004659,의정부부용초등학교,초등학교,2002-01-14,공립,본교,운영,경기도 의정부시 민락동  756-6,경기도 의정부시 오목로  83(민락동),7530000,경기도교육청,7561000,경기도의정부교육지원청,2013-11-29,,37.736165299999996,127.0908863,2017-09-05,경기도 의정부시 민락동
266,B000004660,금릉초등학교,초등학교,2004-01-05,공립,본교,운영,경기도 파주시 금촌동  994,경기도 파주시 후곡로  56(금촌동),7530000,경기도교육청,7681000,경기도파주교육지원청,2013-11-29,,37.7523441,126.7729389,2017-09-05,경기도 파주시 금촌동
267,B000004661,금신초등학교,초등학교,1952-04-01,공립,본교,운영,경기도 파주시 금촌동  369-1,경기도 파주시 금신초교길  10(금촌동),7530000,경기도교육청,7681000,경기도파주교육지원청,2013-11-29,,37.7670547,126.77181090000002,2017-09-05,경기도 파주시 금촌동
268,B000004662,금향초등학교,초등학교,2004-03-01,공립,본교,운영,경기도 파주시 금촌동  1007,경기도 파주시 쇠재로  123(금촌동),7530000,경기도교육청,7681000,경기도파주교육지원청,2013-11-29,,37.75251179999999,126.7769419,2017-09-05,경기도 파주시 금촌동
269,B000004663,검산초등학교,초등학교,1948-04-01,공립,본교,운영,경기도 파주시 검산동  548-2,경기도 파주시 검산로  10(검산동),7530000,경기도교육청,7681000,경기도파주교육지원청,2013-11-29,,37.776101700000005,126.73945790000002,2017-09-05,경기도 파주시 검산동
270,B000004664,파주송화초등학교,초등학교,2001-09-01,공립,본교,운영,경기도 파주시 아동동  277,경기도 파주시 송화로  39(아동동),7530000,경기도교육청,7681000,경기도파주교육지원청,2013-11-29,,37.774635100000005,126.7790524,2017-09-05,경기도 파주시 아동동
271,B000004665,금화초등학교,초등학교,2004-11-05,공립,본교,운영,경기도 파주시 금촌동  974,경기도 파주시 새꽃로  55(금촌동),7530000,경기도교육청,7681000,경기도파주교육지원청,2013-11-29,,37.755103999999996,126.76802509999999,2017-09-05,경기도 파주시 금촌동
272,B000004666,금촌초등학교,초등학교,1923-05-01,공립,본교,운영,경기도 파주시 금촌동  929-1,경기도 파주시 동산3길  38-11(금촌동),7530000,경기도교육청,7681000,경기도파주교육지원청,2013-11-29,,37.7617985,126.7697527,2017-09-05,경기도 파주시 금촌동
273,B000004667,새금초등학교,초등학교,2005-09-01,공립,본교,운영,경기도 파주시 금촌동  1018,경기도 파주시 후곡로  104(금촌동),7530000,경기도교육청,7681000,경기도파주교육지원청,2013-11-29,,37.748075799999995,126.7731682,2017-09-05,경기도 파주시 금촌동
274,B000004668,동패초등학교,초등학교,2003-03-01,공립,본교,운영,경기도 파주시 동패동  1795,경기도 파주시 교하로  272(동패동),7530000,경기도교육청,7681000,경기도파주교육지원청,2013-11-29,,37.717389700000005,126.74001000000001,2017-09-05,경기도 파주시 동패동
275,B000004669,석곶초등학교,초등학교,2005-12-01,공립,본교,운영,경기도 파주시 동패동  1700,경기도 파주시 책향기로  451(동패동),7530000,경기도교육청,7681000,경기도파주교육지원청,2013-11-29,,37.725055499999996,126.7222525,2017-09-05,경기도 파주시 동패동
276,B000004670,문발초등학교,초등학교,2006-01-04,공립,본교,운영,경기도 파주시 문발동  555,경기도 파주시 노을빛로  21(문발동),7530000,경기도교육청,7681000,경기도파주교육지원청,2013-11-29,,37.725698,126.70679170000001,2017-09-05,경기도 파주시 문발동
277,B000004671,지산초등학교,초등학교,1954-10-04,공립,본교,운영,경기도 파주시 와동동  1339-5,경기도 파주시 경의로  1274(와동동),7530000,경기도교육청,7681000,경기도파주교육지원청,2013-11-29,,37.7313601,126.7617476,2017-09-05,경기도 파주시 와동동
278,B000004672,한가람초등학교,초등학교,2010-03-01,공립,본교,운영,경기도 파주시 와동동  1318,경기도 파주시 금바위로  87(와동동),7530000,경기도교육청,7681000,경기도파주교육지원청,2013-11-29,,37.7318838,126.7558625,2017-09-05,경기도 파주시 와동동
279,B000004673,한빛초등학교,초등학교,2010-03-01,공립,본교,운영,경기도 파주시 야당동  983,경기도 파주시 미래로408번길  77(야당동),7530000,경기도교육청,7681000,경기도파주교육지원청,2013-11-29,,37.71465,126.7509672,2017-09-05,경기도 파주시 야당동
280,B000004674,덕암초등학교,초등학교,1966-11-16,공립,본교,운영,경기도 파주시 조리읍 뇌조리  457-1,경기도 파주시 조리읍 등원로  199,7530000,경기도교육청,7681000,경기도파주교육지원청,2013-11-29,,37.7647407,126.8196307,2017-09-05,경기도 파주시 조리읍
281,B000004675,능안초등학교,초등학교,2000-09-01,공립,본교,운영,경기도 파주시 조리읍 능안리  53-6,경기도 파주시 조리읍 능안로  145,7530000,경기도교육청,7681000,경기도파주교육지원청,2013-11-29,,37.740584000000005,126.79282930000001,2017-09-05,경기도 파주시 조리읍
282,B000004676,파주대원초등학교,초등학교,2001-03-01,공립,본교,운영,경기도 파주시 조리읍 대원리  203,경기도 파주시 조리읍 대원로  30,7530000,경기도교육청,7681000,경기도파주교육지원청,2013-11-29,,37.7272467,126.8192952,2017-09-05,경기도 파주시 조리읍
283,B000004677,봉일천초등학교,초등학교,1920-05-01,공립,본교,운영,경기도 파주시 조리읍 봉일천리  191-6,경기도 파주시 조리읍 통일로  333,7530000,경기도교육청,7681000,경기도파주교육지원청,2013-11-29,,37.745028399999995,126.8072467,2017-09-05,경기도 파주시 조리읍
284,B000004678,교하초등학교,초등학교,1907-10-03,공립,본교,운영,경기도 파주시 교하동  337,경기도 파주시 동편길  13(교하동),7530000,경기도교육청,7681000,경기도파주교육지원청,2013-11-29,,37.753867799999995,126.74731299999999,2017-09-05,경기도 파주시 교하동
285,B000004679,청석초등학교,초등학교,1931-08-31,공립,본교,운영,경기도 파주시 다율동  983,경기도 파주시 청석로  330(다율동),7530000,경기도교육청,7681000,경기도파주교육지원청,2013-11-29,,37.731051,126.7192795,2017-09-05,경기도 파주시 다율동
286,B000004680,청암초등학교,초등학교,2001-09-01,공립,본교,운영,경기도 파주시 목동동  868,,7530000,경기도교육청,7681000,경기도파주교육지원청,2013-11-29,,37.730981,126.7378741,2017-09-05,경기도 파주시 목동동
287,B000004852,가산초등학교,초등학교,1936-09-15,공립,본교,운영,강원도 춘천시 동면 지내리  136-2,강원도 춘천시 동면 가산로  52,7800000,강원도교육청,7811000,강원도춘천교육지원청,2013-11-29,,37.908693,127.782582,2017-09-05,강원도 춘천시 동면
288,B000003763,이매초등학교,초등학교,1993-05-01,공립,본교,운영,경기도 성남시 분당구 이매동  112,경기도 성남시 분당구 양현로  146(이매동),7530000,경기도교육청,7551000,경기도성남교육지원청,2013-11-29,,37.396733600000005,127.1259418,2017-09-05,경기도 성남시 분당구
289,B000003764,성남장안초등학교,초등학교,1994-05-01,공립,본교,운영,경기도 성남시 분당구 분당동  91,경기도 성남시 분당구 장안로51번길  10(분당동),7530000,경기도교육청,7551000,경기도성남교육지원청,2013-11-29,,37.372132,127.14414509999999,2017-09-05,경기도 성남시 분당구
290,B000003765,한솔초등학교,초등학교,1994-06-01,공립,본교,운영,경기도 성남시 분당구 정자동  113,경기도 성남시 분당구 돌마로  303(정자동),7530000,경기도교육청,7551000,경기도성남교육지원청,2013-11-29,,37.3666226,127.11785729999998,2017-09-05,경기도 성남시 분당구
291,B000003766,늘푸른초등학교,초등학교,2003-06-01,공립,본교,운영,경기도 성남시 분당구 정자동  178-5,경기도 성남시 분당구 정자일로  87(정자동),7530000,경기도교육청,7551000,경기도성남교육지원청,2013-11-29,,37.3579592,127.1053044,2017-09-05,경기도 성남시 분당구
292,B000003767,중탑초등학교,초등학교,1993-01-10,공립,본교,운영,경기도 성남시 분당구 야탑동  212,경기도 성남시 분당구 벌말로  68(야탑동),7530000,경기도교육청,7551000,경기도성남교육지원청,2013-11-29,,37.413619700000005,127.13947140000002,2017-09-05,경기도 성남시 분당구
293,B000003768,돌마초등학교,초등학교,1934-04-01,공립,본교,운영,경기도 성남시 분당구 야탑동  515,경기도 성남시 분당구 야탑로  96-7(야탑동),7530000,경기도교육청,7551000,경기도성남교육지원청,2013-11-29,,37.4089552,127.13002469999999,2017-09-05,경기도 성남시 분당구
294,B000003769,하탑초등학교,초등학교,1993-07-01,공립,본교,운영,경기도 성남시 분당구 야탑동  531,경기도 성남시 분당구 양현로  262(야탑동),7530000,경기도교육청,7551000,경기도성남교육지원청,2013-11-29,,37.4070081,127.12625190000001,2017-09-05,경기도 성남시 분당구
295,B000003770,내정초등학교,초등학교,1992-03-01,공립,본교,운영,경기도 성남시 분당구 수내동  57,경기도 성남시 분당구 내정로174번길  19(수내동),7530000,경기도교육청,7551000,경기도성남교육지원청,2013-11-29,,37.372818,127.1221656,2017-09-05,경기도 성남시 분당구
296,B000003771,성남정자초등학교,초등학교,2004-03-02,공립,본교,운영,경기도 성남시 분당구 정자동  6-2,경기도 성남시 분당구 분당수서로  442(정자동),7530000,경기도교육청,7551000,경기도성남교육지원청,2013-11-29,,37.3738436,127.1050822,2017-09-05,경기도 성남시 분당구
297,B000003772,수내초등학교,초등학교,1993-01-11,공립,본교,운영,경기도 성남시 분당구 수내동  81,경기도 성남시 분당구 백현로243번길  12(수내동),7530000,경기도교육청,7551000,경기도성남교육지원청,2013-11-29,,37.367517299999996,127.12428200000001,2017-09-05,경기도 성남시 분당구
298,B000003773,심곡초등학교,초등학교,1977-09-01,공립,본교,운영,경기도 부천시 원미구 심곡동  300,경기도 부천시 원미구 장말로  309(심곡동),7530000,경기도교육청,7581000,경기도부천교육지원청,2013-11-29,,37.4918232,126.7763896,2017-09-05,경기도 부천시 원미구
299,B000003774,중동초등학교,초등학교,2009-03-01,공립,본교,운영,경기도 부천시 원미구 중동  1290,경기도 부천시 원미구 심중로75번길  37(중동),7530000,경기도교육청,7581000,경기도부천교육지원청,2013-11-29,,37.489954499999996,126.7693697,2017-09-05,경기도 부천시 원미구
300,B000003775,심원초등학교,초등학교,1994-03-01,공립,본교,운영,경기도 부천시 원미구 중동  1097,경기도 부천시 원미구 옥산로  66(중동),7530000,경기도교육청,7581000,경기도부천교육지원청,2013-11-29,,37.4995506,126.7817416,2017-09-05,경기도 부천시 원미구
301,B000003776,상인초등학교,초등학교,2002-04-01,공립,본교,운영,경기도 부천시 원미구 상동  500-3,경기도 부천시 원미구 도약로  61(상동),7530000,경기도교육청,7581000,경기도부천교육지원청,2013-11-29,,37.512774900000004,126.7564686,2017-09-05,경기도 부천시 원미구
302,B000003777,석천초등학교,초등학교,2002-09-01,공립,본교,운영,경기도 부천시 원미구 상동  525-4,경기도 부천시 원미구 계남로  29(상동),7530000,경기도교육청,7581000,경기도부천교육지원청,2013-11-29,,37.5105113,126.7523544,2017-09-05,경기도 부천시 원미구
303,B000003778,상일초등학교,초등학교,2002-03-01,공립,본교,운영,경기도 부천시 원미구 상동  550-5,경기도 부천시 원미구 조마루로  57(상동),7530000,경기도교육청,7581000,경기도부천교육지원청,2013-11-29,,37.5017051,126.7504878,2017-09-05,경기도 부천시 원미구
304,B000003779,상미초등학교,초등학교,2005-09-01,공립,본교,운영,경기도 부천시 원미구 상동  588-7,경기도 부천시 원미구 상이로  64(상동),7530000,경기도교육청,7581000,경기도부천교육지원청,2013-11-29,,37.4947121,126.74456529999999,2017-09-05,경기도 부천시 원미구
305,B000003780,상원초등학교,초등학교,2002-09-01,공립,본교,운영,경기도 부천시 원미구 상동  570-7,경기도 부천시 원미구 부흥로  93(상동),7530000,경기도교육청,7581000,경기도부천교육지원청,2013-11-29,,37.498182,126.7534442,2017-09-05,경기도 부천시 원미구
306,B000003781,부천역곡초등학교,초등학교,1994-08-20,공립,본교,운영,경기도 부천시 원미구 역곡동  178-17,경기도 부천시 원미구 역곡로65번길  12(역곡동),7530000,경기도교육청,7581000,경기도부천교육지원청,2013-11-29,,37.4907267,126.80776340000001,2017-09-05,경기도 부천시 원미구
307,B000003782,도당초등학교,초등학교,1987-03-01,공립,본교,운영,경기도 부천시 원미구 도당동  106,경기도 부천시 원미구 삼작로268번길  21(도당동),7530000,경기도교육청,7581000,경기도부천교육지원청,2013-11-29,,37.519396,126.7918866,2017-09-05,경기도 부천시 원미구
308,B000003783,부천신흥초등학교,초등학교,1985-03-02,공립,본교,운영,경기도 부천시 원미구 도당동  265-2,경기도 부천시 원미구 길주로391번길  71(도당동),7530000,경기도교육청,7581000,경기도부천교육지원청,2013-11-29,,37.506797,126.7846375,2017-09-05,경기도 부천시 원미구
309,B000003784,상동초등학교,초등학교,1993-04-01,공립,본교,운영,경기도 부천시 원미구 상동  391-1,경기도 부천시 원미구 부흥로  70(상동),7530000,경기도교육청,7581000,경기도부천교육지원청,2013-11-29,,37.4967327,126.7501495,2017-09-05,경기도 부천시 원미구
310,B000003927,매화초등학교,초등학교,1996-03-01,공립,본교,운영,경기도 안산시 상록구 이동  608,경기도 안산시 상록구 안산대학로  35(이동),7530000,경기도교육청,7611000,경기도안산교육지원청,2013-11-29,,37.3059109,126.8626541,2017-09-05,경기도 안산시 상록구
311,B000004364,이천초등학교,초등학교,1911-05-17,공립,본교,운영,경기도 이천시 창전동 421-21,,7530000,경기도교육청,7741000,경기도이천교육지원청,2013-11-29,2017-02-28,37.2837456,127.4423028,2017-09-05,경기도 이천시 창전동
312,B000004365,이천가산초등학교,초등학교,1936-04-01,공립,본교,운영,경기도 이천시 부발읍 가산리 305-1,경기도 이천시 부발읍 황무로2065번길 112,7530000,경기도교육청,7741000,경기도이천교육지원청,2013-11-29,2017-02-28,37.2419248,127.5184655,2017-09-05,경기도 이천시 부발읍
313,B000004366,부발초등학교,초등학교,1932-11-11,공립,본교,운영,경기도 이천시 부발읍 무촌리 195-5,경기도 이천시 부발읍 무촌로 155,7530000,경기도교육청,7741000,경기도이천교육지원청,2013-11-29,2017-02-21,37.2866395,127.488611,2017-09-05,경기도 이천시 부발읍
314,B000004367,신하초등학교,초등학교,1959-12-01,공립,본교,운영,경기도 이천시 부발읍 신하리 374-2,경기도 이천시 부발읍 경충대로2250번길 12,7530000,경기도교육청,7741000,경기도이천교육지원청,2013-11-29,2017-02-21,37.260806,127.47858219999999,2017-09-05,경기도 이천시 부발읍
315,B000004368,아미초등학교,초등학교,2002-03-01,공립,본교,운영,경기도 이천시 부발읍 아미리 761-6,경기도 이천시 부발읍 신아로92번길 32,7530000,경기도교육청,7741000,경기도이천교육지원청,2013-11-29,2017-02-21,37.2583354,127.49069579999998,2017-09-05,경기도 이천시 부발읍
316,B000004369,장호원초등학교,초등학교,1911-11-01,공립,본교,운영,경기도 이천시 장호원읍 장호원리 104,경기도 이천시 장감로 46,7530000,경기도교육청,7741000,경기도이천교육지원청,2013-11-29,2017-02-28,37.1158246,127.6275122,2017-09-05,경기도 이천시 장호원읍
317,B000004370,대서초등학교,초등학교,1946-09-02,공립,본교,운영,경기도 이천시 장호원읍 대서리 14-1,경기도 이천시 장호원읍 서동대로8487번길 23-24,7530000,경기도교육청,7741000,경기도이천교육지원청,2013-11-29,2017-02-07,37.113209999999995,127.5759676,2017-09-05,경기도 이천시 장호원읍
318,B000004371,이황초등학교,초등학교,1941-04-01,공립,본교,운영,경기도 이천시 장호원읍 이황리 159,경기도 이천시 장호원읍 경충대로 456-20,7530000,경기도교육청,7741000,경기도이천교육지원청,2013-11-29,2017-02-28,37.1454031,127.58746200000002,2017-09-05,경기도 이천시 장호원읍
319,B000004373,표교초등학교,초등학교,1944-04-01,공립,본교,운영,경기도 이천시 마장면 목리 228,경기도 이천시 마장면 중부대로609번길 28-1,7530000,경기도교육청,7741000,경기도이천교육지원청,2013-11-29,2017-02-28,37.2566148,127.4055257,2017-09-05,경기도 이천시 마장면
320,B000004374,마장초등학교,초등학교,1920-12-04,공립,본교,운영,경기도 이천시 마장면 오천리 71,경기도 이천시 마장면 오천로 130,7530000,경기도교육청,7741000,경기도이천교육지원청,2013-11-29,2017-02-21,37.2467554,127.3585655,2017-09-05,경기도 이천시 마장면
321,B000004375,이천매곡초등학교,초등학교,1959-03-15,공립,본교,운영,경기도 이천시 호법면 매곡리 188-1,경기도 이천시 호법면 이섭대천로96번길 8,7530000,경기도교육청,7741000,경기도이천교육지원청,2013-11-29,2017-02-28,37.2146196,127.39420439999999,2017-09-05,경기도 이천시 호법면
322,B000004376,호법초등학교,초등학교,1936-04-06,공립,본교,운영,경기도 이천시 호법면 후안리 295,경기도 이천시 호법면 이섭대천로537번길 8,7530000,경기도교육청,7741000,경기도이천교육지원청,2013-11-29,2017-02-28,37.2240568,127.4273938,2017-09-05,경기도 이천시 호법면
323,B000004377,백사초등학교,초등학교,1921-05-16,공립,본교,운영,경기도 이천시 백사면 현방리 93,경기도 이천시 백사면 현방로 55,7530000,경기도교육청,7741000,경기도이천교육지원청,2013-11-29,2017-02-21,37.3386028,127.4898624,2017-09-05,경기도 이천시 백사면
324,B000004378,도지초등학교,초등학교,1954-04-13,공립,본교,운영,경기도 이천시 백사면 도지리 410,경기도 이천시 백사면 청백리로 207,7530000,경기도교육청,7741000,경기도이천교육지원청,2013-11-29,2017-02-07,37.308134,127.4830735,2017-09-05,경기도 이천시 백사면
325,B000004379,도암초등학교,초등학교,1954-03-02,공립,본교,운영,경기도 이천시 신둔면 도암리 358,경기도 이천시 신둔면 증신로 550,7530000,경기도교육청,7741000,경기도이천교육지원청,2013-11-29,2017-02-07,37.3181314,127.44219609999999,2017-09-05,경기도 이천시 신둔면
326,B000004380,신둔초등학교,초등학교,1935-12-01,공립,본교,운영,경기도 이천시 신둔면 수광리 262-1,경기도 이천시 신둔면 경충대로3150번길 82-3,7530000,경기도교육청,7741000,경기도이천교육지원청,2013-11-29,2017-02-21,37.310022,127.4034143,2017-09-05,경기도 이천시 신둔면
327,B000004381,이천사동초등학교,초등학교,2010-03-01,공립,본교,운영,경기도 이천시 대월면 사동리 518,경기도 이천시 대월면 경충대로2003번길 124-87,7530000,경기도교육청,7741000,경기도이천교육지원청,2013-11-29,2017-02-28,37.2420101,127.4871986,2017-09-05,경기도 이천시 대월면
328,B000004382,대월초등학교,초등학교,1933-06-14,공립,본교,운영,경기도 이천시 대월면 초지리 426-1,경기도 이천시 대월면 대평로178번길 48,7530000,경기도교육청,7741000,경기도이천교육지원청,2013-11-29,2017-02-07,37.2234179,127.4929922,2017-09-05,경기도 이천시 대월면
329,B000004383,진가초등학교,초등학교,1965-03-26,공립,본교,운영,경기도 이천시 모가면 진가리 156,경기도 이천시 모가면 진상미로 1321-14,7530000,경기도교육청,7741000,경기도이천교육지원청,2013-11-29,2017-02-28,37.1743741,127.47944540000002,2017-09-05,경기도 이천시 모가면
330,B000004384,송곡초등학교,초등학교,1941-04-30,공립,본교,운영,경기도 이천시 모가면 송곡리 295-2,경기도 이천시 모가면 진상미로 1054,7530000,경기도교육청,7741000,경기도이천교육지원청,2013-11-29,2017-02-21,37.15209960000001,127.4839095,2017-09-05,경기도 이천시 모가면
331,B000004385,설성초등학교,초등학교,1920-09-13,공립,본교,운영,경기도 이천시 설성면 행죽리 78-1,경기도 이천시 설성면 진상미로264번길 21-165,7530000,경기도교육청,7741000,경기도이천교육지원청,2013-11-29,2017-02-21,37.1099399,127.53755020000001,2017-09-05,경기도 이천시 설성면
332,B000004386,장천초등학교,초등학교,1944-04-06,공립,본교,운영,경기도 이천시 설성면 장천리 360-1,경기도 이천시 설성면 설성로 165-25,7530000,경기도교육청,7741000,경기도이천교육지원청,2013-11-29,2017-02-28,37.1455163,127.52823870000002,2017-09-05,경기도 이천시 설성면
333,B000004387,율면초등학교,초등학교,1933-08-03,공립,본교,운영,경기도 이천시 율면 고당리 545,경기도 이천시 고당로 48,7530000,경기도교육청,7741000,경기도이천교육지원청,2013-11-29,2017-02-28,37.087855,127.5427682,2017-09-05,경기도 이천시 율면
334,B000004607,퇴계원초등학교,초등학교,1963-03-01,공립,본교,운영,경기도 남양주시 퇴계원면 퇴계원리  271-6,경기도 남양주시 퇴계원면 퇴계원로59번길  16,7530000,경기도교육청,7652000,경기도구리남양주교육지원청,2013-11-29,,37.653515000000006,127.1416334,2017-09-05,경기도 남양주시 퇴계원면
335,B000004608,도제원초등학교,초등학교,2000-03-01,공립,본교,운영,경기도 남양주시 퇴계원면 퇴계원리  189,경기도 남양주시 퇴계원면 경춘북로558번길  10-1,7530000,경기도교육청,7652000,경기도구리남양주교육지원청,2013-11-29,,37.645787,127.14576770000001,2017-09-05,경기도 남양주시 퇴계원면
336,B000004609,수동초등학교,초등학교,1946-04-01,공립,본교,운영,경기도 남양주시 수동면 입석리  458-1,경기도 남양주시 수동면 비룡로  832,7530000,경기도교육청,7652000,경기도구리남양주교육지원청,2013-11-29,,37.7118112,127.3231467,2017-09-05,경기도 남양주시 수동면
337,B000004610,조안초등학교,초등학교,1939-07-03,공립,본교,운영,경기도 남양주시 조안면 조안리  47,경기도 남양주시 조안면 북한강로229번길  20,7530000,경기도교육청,7652000,경기도구리남양주교육지원청,2013-11-29,,37.5466064,127.3004788,2017-09-05,경기도 남양주시 조안면
338,B000004611,남양주송촌초등학교,초등학교,1950-05-20,공립,본교,운영,경기도 남양주시 조안면 송촌리  692,,7530000,경기도교육청,7652000,경기도구리남양주교육지원청,2013-11-29,,37.5673924,127.3187364,2017-09-05,경기도 남양주시 조안면
339,B000004612,수동초등학교송천분교장,초등학교,1971-03-01,공립,분교,운영,경기도 남양주시 수동면 송천리  332,경기도 남양주시 수동면 비룡로586번길  98,7530000,경기도교육청,7652000,경기도구리남양주교육지원청,2013-11-29,,37.6948917,127.33425849999999,2017-09-05,경기도 남양주시 수동면
340,B000004613,가양초등학교,초등학교,1960-08-05,공립,본교,운영,경기도 남양주시 수동면 수산리  12-2,,7530000,경기도교육청,7652000,경기도구리남양주교육지원청,2013-11-29,,37.7330281,127.2934794,2017-09-05,경기도 남양주시 수동면
341,B000004614,장자초등학교,초등학교,2001-07-01,공립,본교,운영,경기도 구리시 교문동  824,경기도 구리시 장자대로  40(교문동),7530000,경기도교육청,7652000,경기도구리남양주교육지원청,2013-11-29,,37.5866842,127.13541409999998,2017-09-05,경기도 구리시 교문동
342,B000004615,백문초등학교,초등학교,1994-03-02,공립,본교,운영,경기도 구리시 교문동  808-1,경기도 구리시 장자대로13번길  12(교문동),7530000,경기도교육청,7652000,경기도구리남양주교육지원청,2013-11-29,,37.58821470000001,127.13278079999999,2017-09-05,경기도 구리시 교문동
343,B000004616,부양초등학교,초등학교,1984-06-14,공립,본교,운영,경기도 구리시 수택동  784-2,경기도 구리시 장자대로  89-2(수택동),7530000,경기도교육청,7652000,경기도구리남양주교육지원청,2013-11-29,,37.5901023,127.14202140000002,2017-09-05,경기도 구리시 수택동
344,B000004617,내양초등학교,초등학교,1972-03-01,공립,본교,운영,경기도 구리시 사노동  393-2,경기도 구리시 동구릉로  485(사노동),7530000,경기도교육청,7652000,경기도구리남양주교육지원청,2013-11-29,,37.640370700000005,127.1394163,2017-09-05,경기도 구리시 사노동
345,B000004618,토평초등학교,초등학교,1971-03-01,공립,본교,운영,경기도 구리시 토평동  611-3,경기도 구리시 벌말로129번길  17-1(토평동),7530000,경기도교육청,7652000,경기도구리남양주교육지원청,2013-11-29,,37.5874854,127.1464673,2017-09-05,경기도 구리시 토평동
346,B000004619,도림초등학교,초등학교,1996-09-01,공립,본교,운영,경기도 구리시 교문동  396-1,경기도 구리시 아차산로  431(교문동),7530000,경기도교육청,7652000,경기도구리남양주교육지원청,2013-11-29,,37.5933786,127.1304449,2017-09-05,경기도 구리시 교문동
347,B000004620,교문초등학교,초등학교,1989-09-01,공립,본교,운영,경기도 구리시 교문동  732,경기도 구리시 안골로19번길  16(교문동),7530000,경기도교육청,7652000,경기도구리남양주교육지원청,2013-11-29,,37.597736299999994,127.13366699999999,2017-09-05,경기도 구리시 교문동
348,B000004621,구리초등학교,초등학교,1983-05-10,공립,본교,운영,경기도 구리시 수택동  553,경기도 구리시 경춘로276번길  51(수택동),7530000,경기도교육청,7652000,경기도구리남양주교육지원청,2013-11-29,,37.600767700000006,127.1478334,2017-09-05,경기도 구리시 수택동
349,B000004622,인창초등학교,초등학교,1921-05-17,공립,본교,운영,경기도 구리시 인창동  546-9,,7530000,경기도교육청,7652000,경기도구리남양주교육지원청,2013-11-29,,37.60476920000001,127.13185279999999,2017-09-05,경기도 구리시 인창동
350,B000004623,건원초등학교,초등학교,2009-09-01,공립,본교,운영,경기도 구리시 인창동  514,경기도 구리시 동구릉로80번길  15(인창동),7530000,경기도교육청,7652000,경기도구리남양주교육지원청,2013-11-29,,37.6072839,127.13565179999999,2017-09-05,경기도 구리시 인창동
351,B000004624,동인초등학교,초등학교,2000-11-01,공립,본교,운영,경기도 구리시 인창동  495-48,경기도 구리시 동구릉로103번길  37(인창동),7530000,경기도교육청,7652000,경기도구리남양주교육지원청,2013-11-29,,37.610594799999994,127.1337446,2017-09-05,경기도 구리시 인창동
352,B000004625,동구초등학교,초등학교,1997-03-01,공립,본교,운영,경기도 구리시 인창동  664-3,경기도 구리시 건원대로76번길  45(인창동),7530000,경기도교육청,7652000,경기도구리남양주교육지원청,2013-11-29,,37.60885089999999,127.1417158,2017-09-05,경기도 구리시 인창동
353,B000004626,구지초등학교,초등학교,1996-10-04,공립,본교,운영,경기도 구리시 인창동  666-3,경기도 구리시 건원대로76번길  40(인창동),7530000,경기도교육청,7652000,경기도구리남양주교육지원청,2013-11-29,,37.60717929999999,127.14232390000001,2017-09-05,경기도 구리시 인창동
354,B000004627,수택초등학교,초등학교,2001-03-01,공립,본교,운영,경기도 구리시 토평동  1007,경기도 구리시 검배로136번길  41(토평동),7530000,경기도교육청,7652000,경기도구리남양주교육지원청,2013-11-29,,37.591935,127.15252,2017-09-05,경기도 구리시 토평동
355,B000004629,의정부중앙초등학교,초등학교,1896-09-20,공립,본교,운영,경기도 의정부시 의정부동  224,,7530000,경기도교육청,7561000,경기도의정부교육지원청,2013-11-29,,37.744459,127.04688449999999,2017-09-05,경기도 의정부시 의정부동
356,B000004630,배영초등학교,초등학교,1969-03-02,공립,본교,운영,경기도 의정부시 의정부동  229-2,경기도 의정부시 가능로135번길  20(의정부동),7530000,경기도교육청,7561000,경기도의정부교육지원청,2013-11-29,,37.747890399999996,127.04669309999998,2017-09-05,경기도 의정부시 의정부동
357,B000004631,호암초등학교,초등학교,1958-04-01,공립,본교,운영,경기도 의정부시 호원동  226-14,경기도 의정부시 호암로  47(호원동),7530000,경기도교육청,7561000,경기도의정부교육지원청,2013-11-29,,37.7047577,127.04660990000002,2017-09-05,경기도 의정부시 호원동
358,B000004853,만천초등학교,초등학교,1953-04-16,공립,본교,운영,강원도 춘천시 동면 만천리  978,강원도 춘천시 동면 후석로326번길  89,7800000,강원도교육청,7811000,강원도춘천교육지원청,2013-11-29,,37.884272499999994,127.75792539999999,2017-09-05,강원도 춘천시 동면
359,B000004854,지촌초등학교,초등학교,1929-04-01,공립,본교,운영,강원도 춘천시 사북면 지촌리  347,강원도 춘천시 사북면 지촌길  130,7800000,강원도교육청,7811000,강원도춘천교육지원청,2013-11-29,,38.0379538,127.64488529999998,2017-09-05,강원도 춘천시 사북면
360,B000004855,동내초등학교,초등학교,1948-04-15,공립,본교,운영,강원도 춘천시 동내면 신촌리  491,강원도 춘천시 동내면 동내로  131,7800000,강원도교육청,7811000,강원도춘천교육지원청,2013-11-29,,37.85113320000001,127.76623470000001,2017-09-05,강원도 춘천시 동내면
361,B000004856,남산초등학교,초등학교,1922-11-22,공립,본교,운영,강원도 춘천시 남산면 방곡리  126-2,강원도 춘천시 남산면 한치로  59,7800000,강원도교육청,7811000,강원도춘천교육지원청,2013-11-29,,37.792841100000004,127.645669,2017-09-05,강원도 춘천시 남산면
362,B000004857,춘천삼육초등학교,초등학교,1972-05-02,사립,본교,운영,강원도 춘천시 동면 장학리  568-1,강원도 춘천시 동면 방죽길  56-10,7800000,강원도교육청,7811000,강원도춘천교육지원청,2013-11-29,,37.9110771,127.75367949999999,2017-09-05,강원도 춘천시 동면
363,B000004858,송화초등학교,초등학교,1934-05-10,공립,본교,운영,강원도 춘천시 사북면 고탄리  126-1,,7800000,강원도교육청,7811000,강원도춘천교육지원청,2013-11-29,,37.98762,127.7076049,2017-09-05,강원도 춘천시 사북면
364,B000004859,광판초등학교,초등학교,1936-06-08,공립,본교,운영,강원도 춘천시 남산면 광판리  628,강원도 춘천시 남산면 김유정로  159-12,7800000,강원도교육청,7811000,강원도춘천교육지원청,2013-11-29,,37.730659499999994,127.6988284,2017-09-05,강원도 춘천시 남산면
365,B000004860,추곡초등학교,초등학교,1963-03-01,공립,본교,운영,강원도 춘천시 북산면 추곡리  562,강원도 춘천시 북산면 북산로  34,7800000,강원도교육청,7811000,강원도춘천교육지원청,2013-11-29,,38.0244674,127.8823459,2017-09-05,강원도 춘천시 북산면
366,B000004861,지촌초등학교지암분교장,초등학교,1941-01-01,공립,분교,운영,강원도 춘천시 사북면 지암리  308,강원도 춘천시 사북면 화악지암길  431,7800000,강원도교육청,7811000,강원도춘천교육지원청,2013-11-29,,37.98121079999999,127.60717240000001,2017-09-05,강원도 춘천시 사북면
367,B000004862,남산초등학교서천분교장,초등학교,1941-07-01,공립,분교,운영,강원도 춘천시 남산면 백양리  431-2,강원도 춘천시 남산면 서백길  152,7800000,강원도교육청,7811000,강원도춘천교육지원청,2013-11-29,,37.835581899999994,127.55521019999999,2017-09-05,강원도 춘천시 남산면
368,B000004863,중앙초등학교,초등학교,1969-04-21,공립,본교,운영,강원도 원주시 학성동  1260,강원도 원주시 남산로  181(학성동),7800000,강원도교육청,7821000,강원도원주교육지원청,2013-11-29,,37.3526483,127.93946770000001,2017-09-05,강원도 원주시 학성동
369,B000004864,만대초등학교,초등학교,2011-03-01,공립,본교,운영,강원도 원주시 무실동  1716-2,강원도 원주시 만대로  65(무실동),7800000,강원도교육청,7821000,강원도원주교육지원청,2013-11-29,,37.3392622,127.9205487,2017-09-05,강원도 원주시 무실동
370,B000004865,무실초등학교,초등학교,2005-03-01,공립,본교,운영,강원도 원주시 무실동  1652,강원도 원주시 만대로  155(무실동),7800000,강원도교육청,7821000,강원도원주교육지원청,2013-11-29,,37.3349529,127.9219003,2017-09-05,강원도 원주시 무실동
371,B000004866,반곡초등학교,초등학교,2008-05-23,공립,본교,운영,강원도 원주시 반곡동  1450-1,강원도 원주시 동부순환로  247(반곡동),7800000,강원도교육청,7821000,강원도원주교육지원청,2013-11-29,,37.3374089,127.9733128,2017-09-05,강원도 원주시 반곡동
372,B000004867,(가칭)원주특수학교,초등학교,1946-12-19,공립,본교,운영,강원도 원주시 반곡동 301,강원도 원주시 봉대길 33(반곡동),7800000,강원도교육청,7821000,강원도원주교육지원청,2013-11-29,2017-04-24,37.3320706,127.9938793,2017-09-05,강원도 원주시 반곡동
373,B000004868,명륜초등학교,초등학교,1955-06-05,공립,본교,운영,강원도 원주시 개운동  389,강원도 원주시 행구로  25(개운동),7800000,강원도교육청,7821000,강원도원주교육지원청,2013-11-29,,37.342114,127.95856780000001,2017-09-05,강원도 원주시 개운동
374,B000004869,단관초등학교,초등학교,2005-03-02,공립,본교,운영,강원도 원주시 관설동  1723,강원도 원주시 단관초교길  14(관설동),7800000,강원도교육청,7821000,강원도원주교육지원청,2013-11-29,,37.3174185,127.9637706,2017-09-05,강원도 원주시 관설동
375,B000004870,관설초등학교,초등학교,1969-04-01,공립,본교,운영,강원도 원주시 관설동  1277,강원도 원주시 치악로  1355(관설동),7800000,강원도교육청,7821000,강원도원주교육지원청,2013-11-29,,37.308645399999996,127.97618680000001,2017-09-05,강원도 원주시 관설동
376,B000004871,단계초등학교,초등학교,1963-12-12,공립,본교,운영,강원도 원주시 단계동  82,강원도 원주시 북원로  2387(단계동),7800000,강원도교육청,7821000,강원도원주교육지원청,2013-11-29,,37.358901200000005,127.9364248,2017-09-05,강원도 원주시 단계동
377,B000004872,북원초등학교,초등학교,1985-05-04,공립,본교,운영,강원도 원주시 단계동  796,강원도 원주시 단구로  60(단계동),7800000,강원도교육청,7821000,강원도원주교육지원청,2013-11-29,,37.3431961,127.93773,2017-09-05,강원도 원주시 단계동
378,B000004873,평원초등학교,초등학교,1995-03-15,공립,본교,운영,강원도 원주시 단계동  814,강원도 원주시 금불2길  20(단계동),7800000,강원도교육청,7821000,강원도원주교육지원청,2013-11-29,,37.350009899999996,127.93112749999999,2017-09-05,강원도 원주시 단계동
379,B000004874,단구초등학교,초등학교,1935-09-05,공립,본교,운영,강원도 원주시 단구동  106,강원도 원주시 단구초교길  5(단구동),7800000,강원도교육청,7821000,강원도원주교육지원청,2013-11-29,,37.322435600000006,127.9639549,2017-09-05,강원도 원주시 단구동
380,B000004875,구곡초등학교,초등학교,2007-03-01,공립,본교,운영,강원도 원주시 단구동  982-1,강원도 원주시 늘품로  64(단구동),7800000,강원도교육청,7821000,강원도원주교육지원청,2013-11-29,,37.3249946,127.952752,2017-09-05,강원도 원주시 단구동
381,B000004876,남원주초등학교,초등학교,1998-03-01,공립,본교,운영,강원도 원주시 단구동  1588-2,강원도 원주시 늘품로  28(단구동),7800000,강원도교육청,7821000,강원도원주교육지원청,2013-11-29,,37.3225023,127.95102109999999,2017-09-05,강원도 원주시 단구동
382,B000003408,대전송촌초등학교,초등학교,1999-09-01,공립,본교,운영,대전광역시 대덕구 송촌동  495-9,대전광역시 대덕구 동춘당로54번길  35(송촌동),7430000,대전광역시교육청,7441000,대전광역시동부교육지원청,2013-11-29,,36.3645961,127.44348500000001,2017-09-05,대전광역시 대덕구 송촌동
383,B000003928,호동초등학교,초등학교,1983-03-02,공립,본교,운영,경기도 안산시 상록구 일동  601,경기도 안산시 상록구 성호로  70(일동),7530000,경기도교육청,7611000,경기도안산교육지원청,2013-11-29,,37.3124461,126.86533870000001,2017-09-05,경기도 안산시 상록구
384,B000003929,안산해양초등학교,초등학교,2005-09-01,공립,본교,운영,경기도 안산시 상록구 사1동  1512-1,경기도 안산시 상록구 해양2로  28(사동),7530000,경기도교육청,7611000,경기도안산교육지원청,2013-11-29,,37.294321000000004,126.82377,2017-09-05,경기도 안산시 상록구
385,B000003930,성안초등학교,초등학교,1999-10-20,공립,본교,운영,경기도 안산시 상록구 사동  1535,경기도 안산시 상록구 삼리로  119(사동),7530000,경기도교육청,7611000,경기도안산교육지원청,2013-11-29,2014-07-22,37.305000299999996,126.8532847,2017-09-05,경기도 안산시 상록구
386,B000003931,안산청석초등학교,초등학교,2006-03-01,공립,본교,운영,경기도 안산시 상록구 사동  1510-1,경기도 안산시 상록구 해양1로  48(사동),7530000,경기도교육청,7611000,경기도안산교육지원청,2013-11-29,2014-07-23,37.294497899999996,126.8180638,2017-09-05,경기도 안산시 상록구
387,B000003932,대동초등학교,초등학교,1970-03-02,공립,본교,운영,경기도 안산시 단원구 대부동동  838,경기도 안산시 단원구 솔따배기길  134-9(대부동동),7530000,경기도교육청,7611000,경기도안산교육지원청,2013-11-29,,37.2409761,126.6002123,2017-09-05,경기도 안산시 단원구
388,B000003933,대부초등학교,초등학교,1922-07-05,공립,본교,운영,경기도 안산시 단원구 대부북동 181  대부초등학교,경기도 안산시 단원구 대부중앙로 56  대부초등학교,7530000,경기도교육청,7611000,경기도안산교육지원청,2013-11-29,2015-06-23,37.2455102,126.5811145,2017-09-05,경기도 안산시 단원구
389,B000003934,대남초등학교,초등학교,1961-04-01,공립,본교,운영,경기도 안산시 단원구 대부남동 1066-123,경기도 안산시 단원구 대남로 298(대부남동),7530000,경기도교육청,7611000,경기도안산교육지원청,2013-11-29,2015-06-23,37.219475200000005,126.5758468,2017-09-05,경기도 안산시 단원구
390,B000003935,대남초등학교풍도분교장,초등학교,1948-09-01,공립,분교,운영,경기도 안산시 단원구 풍도동  251,경기도 안산시 단원구 풍도길  28(풍도동),7530000,경기도교육청,7611000,경기도안산교육지원청,2013-11-29,2014-07-23,37.1110334,126.3931906,2017-09-05,경기도 안산시 단원구
391,B000003936,서농초등학교,초등학교,2011-09-01,공립,본교,운영,경기도 용인시 기흥구 서천동 794,,7530000,경기도교육청,7751000,경기도용인교육지원청,2013-11-29,2016-11-21,37.2390321,127.07685120000001,2017-09-05,경기도 용인시 기흥구
392,B000003937,새빛초등학교,초등학교,2012-03-01,공립,본교,운영,경기도 용인시 수지구 상현동  1126,,7530000,경기도교육청,7751000,경기도용인교육지원청,2013-11-29,2014-08-19,37.298897499999995,127.0726242,2017-09-05,경기도 용인시 수지구
393,B000003938,구성초등학교,초등학교,1935-05-12,공립,본교,운영,경기도 용인시 기흥구 마북동  333,경기도 용인시 기흥구 구성로  51(마북동),7530000,경기도교육청,7751000,경기도용인교육지원청,2013-11-29,,37.2953061,127.1148321,2017-09-05,경기도 용인시 기흥구
394,B000003939,지석초등학교,초등학교,2003-09-01,공립,본교,운영,경기도 용인시 기흥구 상하동  435-8,경기도 용인시 기흥구 어정로  62-25(상하동),7530000,경기도교육청,7751000,경기도용인교육지원청,2013-11-29,,37.269693,127.13875290000001,2017-09-05,경기도 용인시 기흥구
395,B000003940,언동초등학교,초등학교,2002-06-10,공립,본교,운영,경기도 용인시 기흥구 언남동  132-10,경기도 용인시 기흥구 언남로  55(언남동),7530000,경기도교육청,7751000,경기도용인교육지원청,2013-11-29,,37.294832799999995,127.13124840000002,2017-09-05,경기도 용인시 기흥구
396,B000003941,성지초등학교,초등학교,2005-03-01,공립,본교,운영,경기도 용인시 기흥구 구갈동  575,경기도 용인시 기흥구 강남서로  38(구갈동),7530000,경기도교육청,7751000,경기도용인교육지원청,2013-11-29,,37.2745282,127.1283918,2017-09-05,경기도 용인시 기흥구
397,B000003942,관곡초등학교,초등학교,2002-03-01,공립,본교,운영,경기도 용인시 기흥구 구갈동  363,경기도 용인시 기흥구 관곡로  61(구갈동),7530000,경기도교육청,7751000,경기도용인교육지원청,2013-11-29,2014-04-28,37.2829422,127.1134994,2017-09-05,경기도 용인시 기흥구
398,B000003943,구갈초등학교,초등학교,1993-09-01,공립,본교,운영,경기도 용인시 기흥구 구갈동  397,경기도 용인시 기흥구 구갈로  36(구갈동),7530000,경기도교육청,7751000,경기도용인교육지원청,2013-11-29,,37.2774421,127.1118385,2017-09-05,경기도 용인시 기흥구
399,B000003944,신갈초등학교,초등학교,1909-06-19,공립,본교,운영,경기도 용인시 기흥구 신갈동  56,경기도 용인시 기흥구 신갈로  76(신갈동),7530000,경기도교육청,7751000,경기도용인교육지원청,2013-11-29,,37.2734116,127.106699,2017-09-05,경기도 용인시 기흥구
400,B000003945,산양초등학교,초등학교,2001-05-01,공립,본교,운영,경기도 용인시 기흥구 신갈동  162,경기도 용인시 기흥구 산양로  2(신갈동),7530000,경기도교육청,7751000,경기도용인교육지원청,2013-11-29,,37.283437,127.10858799999998,2017-09-05,경기도 용인시 기흥구
401,B000003946,소현초등학교,초등학교,2003-05-20,공립,본교,운영,경기도 용인시 수지구 상현동  854,경기도 용인시 수지구 만현로133번길  78(상현동),7530000,경기도교육청,7751000,경기도용인교육지원청,2013-11-29,,37.301616100000004,127.09235840000001,2017-09-05,경기도 용인시 수지구
402,B000003947,보정초등학교,초등학교,2001-08-20,공립,본교,운영,경기도 용인시 기흥구 보정동  1299,경기도 용인시 기흥구 신촌로73번길  28(보정동),7530000,경기도교육청,7751000,경기도용인교육지원청,2013-11-29,2014-04-28,37.3086307,127.1108858,2017-09-05,경기도 용인시 기흥구
403,B000003948,기흥초등학교,초등학교,1945-10-02,공립,본교,운영,경기도 용인시 기흥구 공세동  200-3,경기도 용인시 기흥구 공세로82번길  5(공세동),7530000,경기도교육청,7751000,경기도용인교육지원청,2013-11-29,,37.2321997,127.109664,2017-09-05,경기도 용인시 기흥구
404,B000003949,공세초등학교,초등학교,2009-09-01,공립,본교,운영,경기도 용인시 기흥구 공세동  693,경기도 용인시 기흥구 탑실로  86-10(공세동),7530000,경기도교육청,7751000,경기도용인교육지원청,2013-11-29,,37.2393321,127.11632,2017-09-05,경기도 용인시 기흥구
405,B000003455,대전계산초등학교,초등학교,2012-03-01,공립,본교,운영,대전광역시 유성구 계산동 254,대전광역시 유성구 학하서로 74,7430000,대전광역시교육청,7451000,대전광역시서부교육지원청,2013-11-29,2017-01-02,36.3438567,127.29886409999999,2017-09-05,대전광역시 유성구 계산동
406,B000004561,판곡초등학교,초등학교,2005-03-01,공립,본교,운영,경기도 남양주시 호평동  713,경기도 남양주시 늘을3로  15(호평동),7530000,경기도교육청,7652000,경기도구리남양주교육지원청,2013-11-29,,37.6600405,127.2420452,2017-09-05,경기도 남양주시 호평동
407,B000004562,호평초등학교,초등학교,2004-03-04,공립,본교,운영,경기도 남양주시 호평동  378-1,경기도 남양주시 천마산로  63(호평동),7530000,경기도교육청,7652000,경기도구리남양주교육지원청,2013-11-29,,37.667755799999995,127.2466483,2017-09-05,경기도 남양주시 호평동
408,B000004563,평동초등학교,초등학교,2005-03-04,공립,본교,운영,경기도 남양주시 호평동  659,경기도 남양주시 호평로68번길  16(호평동),7530000,경기도교육청,7652000,경기도구리남양주교육지원청,2013-11-29,,37.654428,127.24784809999998,2017-09-05,경기도 남양주시 호평동
409,B000004564,남양주신촌초등학교,초등학교,2005-03-01,공립,본교,운영,경기도 남양주시 평내동  600,경기도 남양주시 평내로  122(평내동),7530000,경기도교육청,7652000,경기도구리남양주교육지원청,2013-11-29,,37.645403,127.23976609999998,2017-09-05,경기도 남양주시 평내동
410,B000004565,남양주백봉초등학교,초등학교,2005-09-01,공립,본교,운영,경기도 남양주시 평내동  607,경기도 남양주시 의안로  158(평내동),7530000,경기도교육청,7652000,경기도구리남양주교육지원청,2013-11-29,,37.643758899999995,127.24149720000001,2017-09-05,경기도 남양주시 평내동
411,B000004566,남양주금곡초등학교,초등학교,1919-04-01,공립,본교,운영,경기도 남양주시 금곡동  159-7,,7530000,경기도교육청,7652000,경기도구리남양주교육지원청,2013-11-29,,37.6355646,127.2112259,2017-09-05,경기도 남양주시 금곡동
412,B000004567,남양주동곡초등학교,초등학교,1996-09-30,공립,본교,운영,경기도 남양주시 금곡동  624,경기도 남양주시 홍유릉로248번길  56(금곡동),7530000,경기도교육청,7652000,경기도구리남양주교육지원청,2013-11-29,,37.6286042,127.2038561,2017-09-05,경기도 남양주시 금곡동
413,B000004568,도농초등학교,초등학교,2002-03-01,공립,본교,운영,경기도 남양주시 도농동  2-6,경기도 남양주시 도농로  72(도농동),7530000,경기도교육청,7652000,경기도구리남양주교육지원청,2013-11-29,,37.6120451,127.15737779999999,2017-09-05,경기도 남양주시 도농동
414,B000004569,남양주미금초등학교,초등학교,1983-10-08,공립,본교,운영,경기도 남양주시 도농동  28-14,경기도 남양주시 미금로56번길  32-13(도농동),7530000,경기도교육청,7652000,경기도구리남양주교육지원청,2013-11-29,,37.6087329,127.15410790000001,2017-09-05,경기도 남양주시 도농동
415,B000004570,남양주양정초등학교,초등학교,1949-10-18,공립,본교,운영,경기도 남양주시 지금동  99-43,경기도 남양주시 경춘로  468-33(지금동),7530000,경기도교육청,7652000,경기도구리남양주교육지원청,2013-11-29,,37.609105799999995,127.16599620000001,2017-09-05,경기도 남양주시 지금동
416,B000004571,평내초등학교,초등학교,1968-03-11,공립,본교,운영,경기도 남양주시 평내동  203-6,경기도 남양주시 경춘로  1292-11(평내동),7530000,경기도교육청,7652000,경기도구리남양주교육지원청,2013-11-29,,37.6492903,127.2377347,2017-09-05,경기도 남양주시 평내동
417,B000004572,장내초등학교,초등학교,2004-09-01,공립,본교,운영,경기도 남양주시 평내동  563,경기도 남양주시 평내로  64(평내동),7530000,경기도교육청,7652000,경기도구리남양주교육지원청,2013-11-29,,37.640982,127.2348507,2017-09-05,경기도 남양주시 평내동
418,B000004573,사능초등학교,초등학교,2005-09-01,공립,본교,운영,경기도 남양주시 진건읍 사능리  360-1,경기도 남양주시 진건읍 사릉로372번길  2,7530000,경기도교육청,7652000,경기도구리남양주교육지원청,2013-11-29,,37.655288399999996,127.18465659999998,2017-09-05,경기도 남양주시 진건읍
419,B000004574,용신초등학교,초등학교,2000-05-10,공립,본교,운영,경기도 남양주시 진건읍 신월리  87,경기도 남양주시 진건읍 사릉로  474,7530000,경기도교육청,7652000,경기도구리남양주교육지원청,2013-11-29,,37.6607847,127.1729905,2017-09-05,경기도 남양주시 진건읍
420,B000004575,진건초등학교,초등학교,1935-07-01,공립,본교,운영,경기도 남양주시 진건읍 용정리  780-1,경기도 남양주시 진건읍 사릉로  408-9,7530000,경기도교육청,7652000,경기도구리남양주교육지원청,2013-11-29,,37.6576196,127.1791003,2017-09-05,경기도 남양주시 진건읍
421,B000004576,가곡초등학교,초등학교,1969-12-05,공립,본교,운영,경기도 남양주시 화도읍 가곡리  279-21,경기도 남양주시 화도읍 비룡로379번길  3,7530000,경기도교육청,7652000,경기도구리남양주교육지원청,2013-11-29,,37.6840601,127.3062332,2017-09-05,경기도 남양주시 화도읍
422,B000004577,금남초등학교,초등학교,1966-03-10,공립,본교,운영,경기도 남양주시 화도읍 금남리  372,경기도 남양주시 화도읍 북한강로  1506,7530000,경기도교육청,7652000,경기도구리남양주교육지원청,2013-11-29,,37.6439821,127.36233419999999,2017-09-05,경기도 남양주시 화도읍
423,B000004578,답내초등학교,초등학교,1946-04-15,공립,본교,운영,경기도 남양주시 화도읍 답내리  270-2,경기도 남양주시 화도읍 경춘로2347번길  44-7,7530000,경기도교육청,7652000,경기도구리남양주교육지원청,2013-11-29,,37.662450799999995,127.3469545,2017-09-05,경기도 남양주시 화도읍
424,B000004579,남양주송라초등학교,초등학교,2002-09-01,공립,본교,운영,경기도 남양주시 화도읍 마석우리  590,경기도 남양주시 화도읍 마석로45번길  33,7530000,경기도교육청,7652000,경기도구리남양주교육지원청,2013-11-29,,37.6542357,127.30168229999998,2017-09-05,경기도 남양주시 화도읍
425,B000004580,화도초등학교,초등학교,2011-03-01,공립,본교,운영,경기도 남양주시 화도읍 마석우리  194-3,경기도 남양주시 화도읍 비룡로116번길  24-42,7530000,경기도교육청,7652000,경기도구리남양주교육지원청,2013-11-29,,37.663104100000005,127.3081621,2017-09-05,경기도 남양주시 화도읍
426,B000004581,천마초등학교,초등학교,2001-03-01,공립,본교,운영,경기도 남양주시 화도읍 묵현리  372-5,경기도 남양주시 화도읍 경춘로  1707,7530000,경기도교육청,7652000,경기도구리남양주교육지원청,2013-11-29,,37.6556218,127.2803967,2017-09-05,경기도 남양주시 화도읍
427,B000004582,차산초등학교,초등학교,2009-03-01,공립,본교,운영,경기도 남양주시 화도읍 차산리  79-9,경기도 남양주시 화도읍 수레로  1105-23,7530000,경기도교육청,7652000,경기도구리남양주교육지원청,2013-11-29,,37.63636629999999,127.30141869999999,2017-09-05,경기도 남양주시 화도읍
428,B000004583,마석초등학교,초등학교,1925-10-02,공립,본교,운영,경기도 남양주시 화도읍 창현리  517-1,경기도 남양주시 화도읍 수레로  1234-52,7530000,경기도교육청,7652000,경기도구리남양주교육지원청,2013-11-29,,37.649146,127.3049483,2017-09-05,경기도 남양주시 화도읍
429,B000004802,미원초등학교,초등학교,1919-04-16,공립,본교,운영,경기도 가평군 설악면 신천리 439-2,경기도 가평군 설악면 신천중앙로120번길 11,7530000,경기도교육청,7721000,경기도가평교육지원청,2013-11-29,2015-06-30,37.6792626,127.49030790000002,2017-09-05,경기도 가평군 설악면
430,B000004803,미원초등학교위곡분교장,초등학교,1944-09-01,공립,분교,운영,경기도 가평군 설악면 위곡리  718-1,경기도 가평군 설악면 한서로  233,7530000,경기도교육청,7721000,경기도가평교육지원청,2013-11-29,,37.6705689,127.5156807,2017-09-05,경기도 가평군 설악면
431,B000004804,방일초등학교,초등학교,1943-04-01,공립,본교,운영,경기도 가평군 설악면 방일리 50,경기도 가평군 설악면 양방가루재길 76,7530000,경기도교육청,7721000,경기도가평교육지원청,2013-11-29,2016-09-19,37.62933820000001,127.4995463,2017-09-05,경기도 가평군 설악면
432,B000004805,목동초등학교명지분교장,초등학교,1931-04-01,공립,분교,운영,경기도 가평군 북면 적목리 160-1,경기도 가평군 북면 가화로 2680,7530000,경기도교육청,7721000,경기도가평교육지원청,2013-11-29,2015-06-30,37.9709561,127.45469240000001,2017-09-05,경기도 가평군 북면
433,B000004806,미원초등학교장락분교장,초등학교,1944-04-06,공립,분교,운영,경기도 가평군 설악면 미사리  290-3,경기도 가평군 설악면 미사리로  588,7530000,경기도교육청,7721000,경기도가평교육지원청,2013-11-29,,37.7036352,127.5402973,2017-09-05,경기도 가평군 설악면
434,B000004807,은대초등학교,초등학교,1960-04-12,공립,본교,운영,경기도 연천군 전곡읍 은대리  710-19,경기도 연천군 전곡읍 은대로  210,7530000,경기도교육청,7701000,경기도연천교육지원청,2013-11-29,,38.052457000000004,127.0603486,2017-09-05,경기도 연천군 전곡읍
435,B000004808,전곡초등학교,초등학교,1954-03-04,공립,본교,운영,경기도 연천군 전곡읍 전곡리  331-1,경기도 연천군 전곡읍 선사로  433,7530000,경기도교육청,7701000,경기도연천교육지원청,2013-11-29,,38.027507899999996,127.0721257,2017-09-05,경기도 연천군 전곡읍
436,B000004810,전곡초등학교적동분교장,초등학교,1949-10-27,공립,분교,운영,경기도 연천군 전곡읍 늘목리  111-2,경기도 연천군 전곡읍 첫마을길  17,7530000,경기도교육청,7701000,경기도연천교육지원청,2013-11-29,,37.9405498,127.00074860000001,2017-09-05,경기도 연천군 전곡읍
437,B000004811,화진초등학교,초등학교,1954-09-01,공립,본교,운영,경기도 연천군 군남면 황지리  345-2,경기도 연천군 군남면 청정로  2289,7530000,경기도교육청,7701000,경기도연천교육지원청,2013-11-29,,38.030294899999994,127.04004280000001,2017-09-05,경기도 연천군 군남면
438,B000004812,궁평초등학교,초등학교,1944-04-01,공립,본교,운영,경기도 연천군 청산면 궁평리  496-1,경기도 연천군 청산면 궁평로45번길  52,7530000,경기도교육청,7701000,경기도연천교육지원청,2013-11-29,,38.0279542,127.1044047,2017-09-05,경기도 연천군 청산면
439,B000004813,백의초등학교,초등학교,1968-03-01,공립,본교,운영,경기도 연천군 청산면 백의리  824-24,경기도 연천군 청산면 청창로726번길  38,7530000,경기도교육청,7701000,경기도연천교육지원청,2013-11-29,,38.0225845,127.13411640000001,2017-09-05,경기도 연천군 청산면
440,B000004814,초성초등학교,초등학교,1957-04-06,공립,본교,운영,경기도 연천군 청산면 초성리  223-1,경기도 연천군 청산면 학담로  104,7530000,경기도교육청,7701000,경기도연천교육지원청,2013-11-29,,37.9979406,127.07347050000001,2017-09-05,경기도 연천군 청산면
441,B000004815,상리초등학교,초등학교,1954-08-27,공립,본교,운영,경기도 연천군 연천읍 상리  161-2,경기도 연천군 연천읍 상리로  70,7530000,경기도교육청,7701000,경기도연천교육지원청,2013-11-29,,38.1354032,127.07574299999999,2017-09-05,경기도 연천군 연천읍
442,B000004816,연천초등학교,초등학교,1911-05-11,공립,본교,운영,경기도 연천군 연천읍 차탄리  72,경기도 연천군 연천읍 연천로  228,7530000,경기도교육청,7701000,경기도연천교육지원청,2013-11-29,,38.09739129999999,127.07523729999998,2017-09-05,경기도 연천군 연천읍
443,B000004817,군남초등학교,초등학교,1959-07-07,공립,본교,운영,경기도 연천군 군남면 진상리  704-1,경기도 연천군 군남면 진상17길  46,7530000,경기도교육청,7701000,경기도연천교육지원청,2013-11-29,,38.06738120000001,127.0153686,2017-09-05,경기도 연천군 군남면
444,B000004818,대광초등학교,초등학교,1955-09-01,공립,본교,운영,경기도 연천군 신서면 도신리  245-1,경기도 연천군 신서면 연신로  1127-1,7530000,경기도교육청,7701000,경기도연천교육지원청,2013-11-29,,38.18266929999999,127.1053152,2017-09-05,경기도 연천군 신서면
445,B000004819,연천왕산초등학교,초등학교,1963-02-01,공립,본교,운영,경기도 연천군 미산면 우정리  397,경기도 연천군 미산면 왕산로  15,7530000,경기도교육청,7701000,경기도연천교육지원청,2013-11-29,,38.0561851,127.01136770000001,2017-09-05,경기도 연천군 미산면
446,B000004820,백학초등학교,초등학교,1954-12-20,공립,본교,운영,경기도 연천군 백학면 두일리  16,,7530000,경기도교육청,7701000,경기도연천교육지원청,2013-11-29,,38.031838799999996,126.92154679999999,2017-09-05,경기도 연천군 백학면
447,B000004821,연천노곡초등학교,초등학교,1954-04-01,공립,본교,운영,경기도 연천군 백학면 노곡리  714-2,,7530000,경기도교육청,7701000,경기도연천교육지원청,2013-11-29,,37.998667299999994,126.9168061,2017-09-05,경기도 연천군 백학면
448,B000004822,춘천교육대학교부설초등학교,초등학교,1939-05-01,국립,본교,운영,강원도 춘천시 효자동  420,강원도 춘천시 공지로  316(효자동),7800000,강원도교육청,7811000,강원도춘천교육지원청,2013-11-29,,37.869031299999996,127.7314047,2017-09-05,강원도 춘천시 효자동
449,B000004823,춘천초등학교,초등학교,1906-09-01,공립,본교,운영,강원도 춘천시 중앙로3가  40,강원도 춘천시 방송길7번길  14-5(중앙로3가),7800000,강원도교육청,7811000,강원도춘천교육지원청,2013-11-29,,37.874643400000004,127.72173400000001,2017-09-05,강원도 춘천시 중앙로3가
450,B000004824,교동초등학교,초등학교,1954-10-20,공립,본교,운영,강원도 춘천시 교동  113-4,강원도 춘천시 교동길  29(교동),7800000,강원도교육청,7811000,강원도춘천교육지원청,2013-11-29,,37.8806369,127.73718159999999,2017-09-05,강원도 춘천시 교동
451,B000004825,효제초등학교,초등학교,1963-11-11,공립,본교,운영,강원도 춘천시 효자동  161-2,강원도 춘천시 효제길  40(효자동),7800000,강원도교육청,7811000,강원도춘천교육지원청,2013-11-29,,37.87066420000001,127.7380295,2017-09-05,강원도 춘천시 효자동
452,B000004826,중앙초등학교,초등학교,1945-10-15,공립,본교,운영,강원도 춘천시 낙원동  82-1,강원도 춘천시 중앙로88번길  14(낙원동),7800000,강원도교육청,7811000,강원도춘천교육지원청,2013-11-29,,37.8790186,127.7242409,2017-09-05,강원도 춘천시 낙원동
453,B000003409,신탄진용정초등학교,초등학교,1979-10-02,공립,본교,운영,대전광역시 대덕구 신탄진동  50,대전광역시 대덕구 대청로  65(신탄진동),7430000,대전광역시교육청,7441000,대전광역시동부교육지원청,2013-11-29,,36.4537847,127.43518759999999,2017-09-05,대전광역시 대덕구 신탄진동
454,B000003410,대전석봉초등학교,초등학교,1997-03-01,공립,본교,운영,대전광역시 대덕구 신탄진동  163-2,대전광역시 대덕구 신탄진남로  20(신탄진동),7430000,대전광역시교육청,7441000,대전광역시동부교육지원청,2013-11-29,,36.4467138,127.4344058,2017-09-05,대전광역시 대덕구 신탄진동
455,B000003411,대전화정초등학교,초등학교,1971-03-01,공립,본교,운영,대전광역시 대덕구 오정동  93-1,대전광역시 대덕구 한밭대로1024번길  20(오정동),7430000,대전광역시교육청,7441000,대전광역시동부교육지원청,2013-11-29,,36.3568335,127.41181850000001,2017-09-05,대전광역시 대덕구 오정동
456,B000003412,대전동산초등학교,초등학교,1964-03-10,공립,본교,운영,대전광역시 대덕구 오정동  230,대전광역시 대덕구 동산초교로63번길  50(오정동),7430000,대전광역시교육청,7441000,대전광역시동부교육지원청,2013-11-29,,36.350003,127.421108,2017-09-05,대전광역시 대덕구 오정동
457,B000003413,대전동도초등학교,초등학교,1987-09-05,공립,본교,운영,대전광역시 대덕구 오정동  316,대전광역시 대덕구 한남로150번길  27(오정동),7430000,대전광역시교육청,7441000,대전광역시동부교육지원청,2013-11-29,,36.3476943,127.4118197,2017-09-05,대전광역시 대덕구 오정동
458,B000003414,회덕초등학교,초등학교,1936-05-16,공립,본교,운영,대전광역시 대덕구 읍내동 317,대전광역시 대덕구 대전로 1350(읍내동),7430000,대전광역시교육청,7441000,대전광역시동부교육지원청,2013-11-29,2017-01-02,36.37440529999999,127.421098,2017-09-05,대전광역시 대덕구 읍내동
459,B000003415,대전중원초등학교,초등학교,1991-04-06,공립,본교,운영,대전광역시 대덕구 중리동  371-5,대전광역시 대덕구 중리로64번길  45(중리동),7430000,대전광역시교육청,7441000,대전광역시동부교육지원청,2013-11-29,,36.365216,127.4270686,2017-09-05,대전광역시 대덕구 중리동
460,B000003416,기성초등학교,초등학교,1935-09-05,공립,본교,운영,대전광역시 서구 매노동  163,대전광역시 서구 기성초교길  42(매노동),7430000,대전광역시교육청,7451000,대전광역시서부교육지원청,2013-11-29,,36.249083899999995,127.3376126,2017-09-05,대전광역시 서구 매노동
461,B000003417,대전수미초등학교,초등학교,2003-09-01,공립,본교,운영,대전광역시 서구 괴곡동 361-2,대전광역시 서구 괴곡길 42,7430000,대전광역시교육청,7451000,대전광역시서부교육지원청,2013-11-29,2017-01-02,36.294982399999995,127.360937,2017-09-05,대전광역시 서구 괴곡동
462,B000003418,대전서원초등학교,초등학교,1994-09-01,공립,본교,운영,대전광역시 서구 둔산동  910,대전광역시 서구 문정로  279(둔산동),7430000,대전광역시교육청,7451000,대전광역시서부교육지원청,2013-11-29,,36.359069299999994,127.39373549999999,2017-09-05,대전광역시 서구 둔산동
463,B000003419,대전둔원초등학교,초등학교,1995-11-01,공립,본교,운영,대전광역시 서구 갈마동  1417,대전광역시 서구 대덕대로112번길  10(갈마동),7430000,대전광역시교육청,7451000,대전광역시서부교육지원청,2013-11-29,,36.342689899999996,127.3748868,2017-09-05,대전광역시 서구 갈마동
464,B000003420,대전갈마초등학교,초등학교,1963-03-21,공립,본교,운영,대전광역시 서구 갈마동  114-26,대전광역시 서구 월평동로  2(갈마동),7430000,대전광역시교육청,7451000,대전광역시서부교육지원청,2013-11-29,,36.3562347,127.3689949,2017-09-05,대전광역시 서구 갈마동
465,B000003421,대전내동초등학교,초등학교,1979-10-08,공립,본교,운영,대전광역시 서구 내동  13-1,대전광역시 서구 동서대로1063번길  13(내동),7430000,대전광역시교육청,7451000,대전광역시서부교육지원청,2013-11-29,,36.330721399999995,127.3784646,2017-09-05,대전광역시 서구 내동
466,B000003422,대전변동초등학교,초등학교,1981-04-29,공립,본교,운영,대전광역시 서구 변동 36-3,대전광역시 서구 유등로 373(변동),7430000,대전광역시교육청,7451000,대전광역시서부교육지원청,2013-11-29,2016-12-12,36.3247266,127.38489270000001,2017-09-05,대전광역시 서구 변동
467,B000003423,대전백운초등학교,초등학교,1949-11-15,공립,본교,운영,대전광역시 서구 괴정동  43-8,대전광역시 서구 계룡로576번길  56(괴정동),7430000,대전광역시교육청,7451000,대전광역시서부교육지원청,2013-11-29,,36.3403851,127.38446680000001,2017-09-05,대전광역시 서구 괴정동
468,B000003424,대전탄방초등학교,초등학교,1990-06-05,공립,본교,운영,대전광역시 서구 탄방동 814,대전광역시 서구 탄방로 15(탄방동),7430000,대전광역시교육청,7451000,대전광역시서부교육지원청,2013-11-29,2016-12-12,36.3453549,127.3903851,2017-09-05,대전광역시 서구 탄방동
469,B000003425,대전원앙초등학교,초등학교,2005-03-01,공립,본교,운영,대전광역시 서구 관저동  49,대전광역시 서구 관저북로  97(관저동),7430000,대전광역시교육청,7451000,대전광역시서부교육지원청,2013-11-29,,36.31109,127.3362882,2017-09-05,대전광역시 서구 관저동
470,B000003426,대전갑천초등학교,초등학교,1993-09-01,공립,본교,운영,대전광역시 서구 월평동 308,대전광역시 서구 월평동로 61(월평동),7430000,대전광역시교육청,7451000,대전광역시서부교육지원청,2013-11-29,2016-12-19,36.36060689999999,127.3671168,2017-09-05,대전광역시 서구 월평동
471,B000003427,대전월평초등학교,초등학교,1996-04-29,공립,본교,운영,대전광역시 서구 월평동 314,대전광역시 서구 월평서로 22(월평동),7430000,대전광역시교육청,7451000,대전광역시서부교육지원청,2013-11-29,2016-12-12,36.3556034,127.3573669,2017-09-05,대전광역시 서구 월평동
472,B000003428,대전도안초등학교,초등학교,2011-03-01,공립,본교,운영,대전광역시 서구 도안동  1363,대전광역시 서구 원도안로  200(도안동),7430000,대전광역시교육청,7451000,대전광역시서부교육지원청,2013-11-29,,36.321402299999995,127.34412579999999,2017-09-05,대전광역시 서구 도안동
473,B000003429,대전샘머리초등학교,초등학교,1998-09-01,공립,본교,운영,대전광역시 서구 둔산동  907-1,대전광역시 서구 유등로  879(둔산동),7430000,대전광역시교육청,7451000,대전광역시서부교육지원청,2013-11-29,,36.3630423,127.3928934,2017-09-05,대전광역시 서구 둔산동
474,B000003430,가수원초등학교,초등학교,1946-10-26,공립,본교,운영,대전광역시 서구 가수원동 471,대전광역시 서구 벌곡로 1359(가수원동),7430000,대전광역시교육청,7451000,대전광역시서부교육지원청,2013-11-29,2017-01-02,36.302504799999994,127.35289569999999,2017-09-05,대전광역시 서구 가수원동
475,B000003573,대현초등학교,초등학교,1924-07-08,공립,본교,운영,울산광역시 남구 야음동 687-2,울산광역시 남구 수암로 165-3(야음동),7480000,울산광역시교육청,7501000,울산광역시강남교육지원청,2013-11-29,2016-08-23,35.5281131,129.3249496,2017-09-05,울산광역시 남구 야음동
476,B000003456,대전반석초등학교,초등학교,2006-03-01,공립,본교,운영,대전광역시 유성구 반석동  648,대전광역시 유성구 반석동로  30(반석동),7430000,대전광역시교육청,7451000,대전광역시서부교육지원청,2013-11-29,,36.3897232,127.3125696,2017-09-05,대전광역시 유성구 반석동
477,B000003457,외삼초등학교,초등학교,1948-05-10,공립,본교,운영,대전광역시 유성구 반석동 617,대전광역시 유성구 반석동로 63(반석동),7430000,대전광역시교육청,7451000,대전광역시서부교육지원청,2013-11-29,2017-01-02,36.3925553,127.3102383,2017-09-05,대전광역시 유성구 반석동
478,B000003458,대전자운초등학교,초등학교,1996-05-27,공립,본교,운영,대전광역시 유성구 신봉동 208,대전광역시 유성구 자운로97번길 380(신봉동),7430000,대전광역시교육청,7451000,대전광역시서부교육지원청,2013-11-29,2017-01-02,36.412089200000004,127.3376899,2017-09-05,대전광역시 유성구 신봉동
479,B000003459,대전교촌초등학교,초등학교,2007-03-01,공립,본교,운영,대전광역시 유성구 교촌동  618,대전광역시 유성구 진잠로149번길  42(교촌동),7430000,대전광역시교육청,7451000,대전광역시서부교육지원청,2013-11-29,,36.305675799999996,127.31643799999999,2017-09-05,대전광역시 유성구 교촌동
480,B000003460,대전대정초등학교,초등학교,2004-09-01,공립,본교,운영,대전광역시 유성구 대정동  310,대전광역시 유성구 대정로28번길  55(대정동),7430000,대전광역시교육청,7451000,대전광역시서부교육지원청,2013-11-29,,36.3149783,127.32280209999999,2017-09-05,대전광역시 유성구 대정동
481,B000003461,진잠초등학교,초등학교,1913-05-20,공립,본교,운영,대전광역시 유성구 원내동  62,대전광역시 유성구 진잠로59번길  53(원내동),7430000,대전광역시교육청,7451000,대전광역시서부교육지원청,2013-11-29,,36.2993284,127.3145095,2017-09-05,대전광역시 유성구 원내동
482,B000003462,대전봉명초등학교,초등학교,2011-03-01,공립,본교,운영,대전광역시 유성구 봉명동  1023,대전광역시 유성구 계룡로132번길  62(봉명동),7430000,대전광역시교육청,7451000,대전광역시서부교육지원청,2013-11-29,,36.349292600000005,127.3430902,2017-09-05,대전광역시 유성구 봉명동
483,B000003463,대전장대초등학교,초등학교,2002-05-01,공립,본교,운영,대전광역시 유성구 장대동 348,대전광역시 유성구 문화원로19번길 16(장대동),7430000,대전광역시교육청,7451000,대전광역시서부교육지원청,2013-11-29,2016-12-12,36.3613533,127.33883370000001,2017-09-05,대전광역시 유성구 장대동
484,B000003464,유성초등학교,초등학교,1927-06-07,공립,본교,운영,대전광역시 유성구 장대동 155,대전광역시 유성구 장대로71번길 12(장대동),7430000,대전광역시교육청,7451000,대전광역시서부교육지원청,2013-11-29,2017-01-02,36.361863899999996,127.3338969,2017-09-05,대전광역시 유성구 장대동
485,B000003465,대전상대초등학교,초등학교,2010-04-16,공립,본교,운영,대전광역시 유성구 상대동 138-14,대전광역시 유성구 월드컵대로 322(상대동),7430000,대전광역시교육청,7451000,대전광역시서부교육지원청,2013-11-29,2017-01-02,36.3474797,127.3358165,2017-09-05,대전광역시 유성구 상대동
486,B000003466,흥도초등학교,초등학교,1965-10-02,공립,본교,운영,대전광역시 유성구 원신흥동  555,대전광역시 유성구 원신흥남로  20(원신흥동),7430000,대전광역시교육청,7451000,대전광역시서부교육지원청,2013-11-29,,36.3341848,127.3383396,2017-09-05,대전광역시 유성구 원신흥동
487,B000003467,대전원신흥초등학교,초등학교,2011-03-01,공립,본교,운영,대전광역시 유성구 원신흥동  496,대전광역시 유성구 원신흥로55번길  37(원신흥동),7430000,대전광역시교육청,7451000,대전광역시서부교육지원청,2013-11-29,,36.340787,127.34225990000002,2017-09-05,대전광역시 유성구 원신흥동
488,B000003468,덕송초등학교,초등학교,1969-03-01,공립,본교,운영,대전광역시 유성구 덕명동  498,대전광역시 유성구 현충원로  265(덕명동),7430000,대전광역시교육청,7451000,대전광역시서부교육지원청,2013-11-29,,36.361123600000006,127.30148059999999,2017-09-05,대전광역시 유성구 덕명동
489,B000003469,대전노은초등학교,초등학교,2002-09-01,공립,본교,운영,대전광역시 유성구 노은동  540,대전광역시 유성구 노은동로99번길  35(노은동),7430000,대전광역시교육청,7451000,대전광역시서부교육지원청,2013-11-29,,36.368828,127.32079340000001,2017-09-05,대전광역시 유성구 노은동
490,B000003470,대전수정초등학교,초등학교,2007-03-01,공립,본교,운영,대전광역시 유성구 노은동  552-2,대전광역시 유성구 노은서로  62(노은동),7430000,대전광역시교육청,7451000,대전광역시서부교육지원청,2013-11-29,,36.365973600000004,127.3130271,2017-09-05,대전광역시 유성구 노은동
491,B000003471,대전상지초등학교,초등학교,2001-03-01,공립,본교,운영,대전광역시 유성구 지족동  915,대전광역시 유성구 노은동로  165(지족동),7430000,대전광역시교육청,7451000,대전광역시서부교육지원청,2013-11-29,,36.3752255,127.32133200000001,2017-09-05,대전광역시 유성구 지족동
492,B000003472,대전지족초등학교,초등학교,2002-03-01,공립,본교,운영,대전광역시 유성구 지족동  850,대전광역시 유성구 노은서로  238(지족동),7430000,대전광역시교육청,7451000,대전광역시서부교육지원청,2013-11-29,,36.3804149,127.3167237,2017-09-05,대전광역시 유성구 지족동
493,B000003473,봉암초등학교,초등학교,1969-03-04,공립,본교,운영,대전광역시 유성구 궁동  80,대전광역시 유성구 궁동로  21(궁동),7430000,대전광역시교육청,7451000,대전광역시서부교육지원청,2013-11-29,,36.363631,127.3474757,2017-09-05,대전광역시 유성구 궁동
494,B000003474,대덕초등학교,초등학교,1979-10-02,공립,본교,운영,대전광역시 유성구 도룡동  396,대전광역시 유성구 대덕대로556번길  102(도룡동),7430000,대전광역시교육청,7451000,대전광역시서부교육지원청,2013-11-29,,36.3851326,127.3808818,2017-09-05,대전광역시 유성구 도룡동
495,B000003475,금성초등학교,초등학교,1942-04-01,공립,본교,운영,대전광역시 유성구 신성동 210-12,대전광역시 유성구 신성로72번길 5(신성동),7430000,대전광역시교육청,7451000,대전광역시서부교육지원청,2013-11-29,2016-12-12,36.3889531,127.34966340000001,2017-09-05,대전광역시 유성구 신성동
496,B000003476,대전하기초등학교,초등학교,2005-03-01,공립,본교,운영,대전광역시 유성구 하기동  514,대전광역시 유성구 송림로19번길  32(하기동),7430000,대전광역시교육청,7451000,대전광역시서부교육지원청,2013-11-29,,36.388453999999996,127.320986,2017-09-05,대전광역시 유성구 하기동
497,B000003623,천천초등학교,초등학교,2002-01-14,공립,본교,운영,경기도 수원시 장안구 천천동  512,경기도 수원시 장안구 정자로42번길  17(천천동),7530000,경기도교육청,7541000,경기도수원교육지원청,2013-11-29,,37.300463,126.98242979999999,2017-09-05,경기도 수원시 장안구
498,B000004776,도평초등학교,초등학교,1957-04-07,공립,본교,운영,경기도 포천시 이동면 도평리 721-10,,7530000,경기도교육청,7711000,경기도포천교육지원청,2013-11-29,2017-05-04,38.056020000000004,127.38108319999999,2017-09-05,경기도 포천시 이동면
499,B000004877,교동초등학교,초등학교,1970-12-31,공립,본교,운영,강원도 원주시 명륜동 235,강원도 원주시 명륜로 9,7800000,강원도교육청,7821000,강원도원주교육지원청,2013-11-29,2017-02-06,37.3384531,127.9469657,2017-09-05,강원도 원주시 명륜동
500,B000004878,서원주초등학교,초등학교,2000-10-01,공립,본교,운영,강원도 원주시 명륜동  844,강원도 원주시 남원로469번길  61(명륜동),7800000,강원도교육청,7821000,강원도원주교육지원청,2013-11-29,,37.3269855,127.9398707,2017-09-05,강원도 원주시 명륜동
501,B000004879,치악초등학교,초등학교,1992-03-12,공립,본교,운영,강원도 원주시 명륜동  709,강원도 원주시 한지공원길  77(명륜동),7800000,강원도교육청,7821000,강원도원주교육지원청,2013-11-29,,37.33188079999999,127.93945020000001,2017-09-05,강원도 원주시 명륜동
502,B000004880,원주초등학교,초등학교,1896-09-17,공립,본교,운영,강원도 원주시 봉산동  1116,강원도 원주시 봉산로  15(봉산동),7800000,강원도교육청,7821000,강원도원주교육지원청,2013-11-29,,37.347841700000004,127.95896110000001,2017-09-05,강원도 원주시 봉산동
503,B000004881,우산초등학교,초등학교,1973-10-02,공립,본교,운영,강원도 원주시 우산동  262-2,강원도 원주시 우산초교길  84(우산동),7800000,강원도교육청,7821000,강원도원주교육지원청,2013-11-29,,37.3693579,127.93318459999999,2017-09-05,강원도 원주시 우산동
504,B000004882,일산초등학교,초등학교,1949-11-03,공립,본교,운영,강원도 원주시 일산동  278,강원도 원주시 일산초교길  1(일산동),7800000,강원도교육청,7821000,강원도원주교육지원청,2013-11-29,,37.3466276,127.9421071,2017-09-05,강원도 원주시 일산동
505,B000004883,태봉초등학교,초등학교,2002-03-01,공립,본교,운영,강원도 원주시 태장동  485,강원도 원주시 흥양로51번길  113(태장동),7800000,강원도교육청,7821000,강원도원주교육지원청,2013-11-29,,37.3860572,127.95655020000001,2017-09-05,강원도 원주시 태장동
506,B000004884,태장초등학교,초등학교,1953-04-01,공립,본교,운영,강원도 원주시 태장동  1002,강원도 원주시 현충로  260(태장동),7800000,강원도교육청,7821000,강원도원주교육지원청,2013-11-29,,37.3764046,127.95127759999998,2017-09-05,강원도 원주시 태장동
507,B000004885,장양초등학교,초등학교,1947-12-03,공립,본교,운영,강원도 원주시 태장동  1983,강원도 원주시 북원로  2868(태장동),7800000,강원도교육청,7821000,강원도원주교육지원청,2013-11-29,,37.3984662,127.95392350000002,2017-09-05,강원도 원주시 태장동
508,B000004886,학성초등학교,초등학교,1941-04-01,공립,본교,운영,강원도 원주시 학성동  152-1,강원도 원주시 천사로  255(학성동),7800000,강원도교육청,7821000,강원도원주교육지원청,2013-11-29,,37.3543201,127.95072990000001,2017-09-05,강원도 원주시 학성동
509,B000004887,원주삼육초등학교,초등학교,1956-05-04,사립,본교,운영,강원도 원주시 무실동  산139,강원도 원주시 북원로  1996(무실동),7800000,강원도교육청,7821000,강원도원주교육지원청,2013-11-29,,37.3268091,127.92378400000001,2017-09-05,강원도 원주시 무실동
510,B000004888,문막초등학교,초등학교,1917-05-01,공립,본교,운영,강원도 원주시 문막읍 건등리  1704,강원도 원주시 문막읍 건등로  28-11,7800000,강원도교육청,7821000,강원도원주교육지원청,2013-11-29,,37.31254129999999,127.82083370000001,2017-09-05,강원도 원주시 문막읍
511,B000004889,동화초등학교,초등학교,2004-03-01,공립,본교,운영,강원도 원주시 문막읍 동화리  1534-2,강원도 원주시 문막읍 왕건로  83,7800000,강원도교육청,7821000,강원도원주교육지원청,2013-11-29,,37.3275258,127.82883909999998,2017-09-05,강원도 원주시 문막읍
512,B000004890,반계초등학교,초등학교,1966-04-20,공립,본교,운영,강원도 원주시 문막읍 반계리 1090,강원도 원주시 문막읍 원문로 2265,7800000,강원도교육청,7821000,강원도원주교육지원청,2013-11-29,2017-04-17,37.2917468,127.7906386,2017-09-05,강원도 원주시 문막읍
513,B000004892,부론초등학교,초등학교,1920-12-06,공립,본교,운영,강원도 원주시 부론면 법천리  1535,강원도 원주시 부론면 법천시장길  58,7800000,강원도교육청,7821000,강원도원주교육지원청,2013-11-29,,37.207730700000006,127.74889420000001,2017-09-05,강원도 원주시 부론면
514,B000004893,지정초등학교,초등학교,1932-10-01,공립,본교,운영,강원도 원주시 지정면 간현리  539-1,강원도 원주시 지정면 지정로  103,7800000,강원도교육청,7821000,강원도원주교육지원청,2013-11-29,,37.3478342,127.8459324,2017-09-05,강원도 원주시 지정면
515,B000004894,신평초등학교,초등학교,1944-05-20,공립,본교,운영,강원도 원주시 지정면 신평리 681-3,강원도 원주시 지정면 신무로 336,7800000,강원도교육청,7821000,강원도원주교육지원청,2013-11-29,2017-02-06,37.3845465,127.8923524,2017-09-05,강원도 원주시 지정면
516,B000004895,교학초등학교,초등학교,1947-04-01,공립,본교,운영,강원도 원주시 소초면 학곡리  666,강원도 원주시 소초면 토동길  20,7800000,강원도교육청,7821000,강원도원주교육지원청,2013-11-29,,37.435453700000004,128.05555090000001,2017-09-05,강원도 원주시 소초면
517,B000004896,둔둔초등학교,초등학교,1947-01-16,공립,본교,운영,강원도 원주시 소초면 둔둔리  769,강원도 원주시 소초면 버덩마을길  7,7800000,강원도교육청,7821000,강원도원주교육지원청,2013-11-29,,37.4465007,127.97913559999999,2017-09-05,강원도 원주시 소초면
518,B000004897,소초초등학교,초등학교,1930-11-11,공립,본교,운영,강원도 원주시 소초면 평장리  792,강원도 원주시 소초면 평장안골1길  15,7800000,강원도교육청,7821000,강원도원주교육지원청,2013-11-29,,37.41739320000001,128.0039936,2017-09-05,강원도 원주시 소초면
519,B000004898,흥양초등학교,초등학교,1940-06-01,공립,본교,운영,강원도 원주시 소초면 흥양리  883,강원도 원주시 소초면 하초구길  6,7800000,강원도교육청,7821000,강원도원주교육지원청,2013-11-29,,37.3809355,127.9971996,2017-09-05,강원도 원주시 소초면
520,B000004899,매지초등학교,초등학교,1946-04-01,공립,본교,운영,강원도 원주시 흥업면 매지리  1127,강원도 원주시 흥업면 북원로  1324,7800000,강원도교육청,7821000,강원도원주교육지원청,2013-11-29,,37.268988799999995,127.90629840000001,2017-09-05,강원도 원주시 흥업면
